[[{"address_components": [{"long_name": "Campol\u00e2ndia", "short_name": "Campol\u00e2ndia", "types": ["political", "sublocality", "sublocality_level_1"]}, {"long_name": "Rorain\u00f3polis", "short_name": "Rorain\u00f3polis", "types": ["administrative_area_level_2", "political"]}, {"long_name": "Roraima", "short_name": "RR", "types": ["administrative_area_level_1", "political"]}, {"long_name": "Brazil", "short_name": "BR", "types": ["country", "political"]}, {"long_name": "69373-000", "short_name": "69373-000", "types": ["postal_code"]}], "formatted_address": "Campol\u00e2ndia, Rorain\u00f3polis - RR, 69373-000, Brazil", "geometry": {"bounds": {"northeast": {"lat": 0.942665, "lng": -60.4308286}, "southwest": {"lat": 0.9361778, "lng": -60.439458}}, "location": {"lat": 0.9385167999999998, "lng": -60.43558419999999}, "location_type": "APPROXIMATE", "viewport": {"northeast": {"lat": 0.942665, "lng": -60.4308286}, "southwest": {"lat": 0.9361778, "lng": -60.439458}}}, "partial_match": true, "place_id": "ChIJ0SbL4xiFi40R3xS9aAM9ZNk", "types": ["political", "sublocality", "sublocality_level_1"]}], [{"address_components": [{"long_name": "Avenida Teresa Maciel", "short_name": "Av. Teresa Maciel", "types": ["route"]}, {"long_name": "Cidade Sat\u00e9lite", "short_name": "Cidade Sat\u00e9lite", "types": ["political", "sublocality", "sublocality_level_1"]}, {"long_name": "Boa Vista", "short_name": "Boa Vista", "types": ["administrative_area_level_2", "political"]}, {"long_name": "Roraima", "short_name": "RR", "types": ["administrative_area_level_1", "political"]}, {"long_name": "Brazil", "short_name": "BR", "types": ["country", "political"]}], "formatted_address": "Av. Teresa Maciel - Cidade Sat\u00e9lite, Boa Vista - RR, Brazil", "geometry": {"bounds": {"northeast": {"lat": 2.8536271, "lng": -60.74322439999999}, "southwest": {"lat": 2.8434922, "lng": -60.74540340000001}}, "location": {"lat": 2.8482046, "lng": -60.7442959}, "location_type": "GEOMETRIC_CENTER", "viewport": {"northeast": {"lat": 2.8536271, "lng": -60.74296491970849}, "southwest": {"lat": 2.8434922, "lng": -60.7456628802915}}}, "place_id": "ChIJx9-ZVfUPk40RQssMg2OnMmY", "types": ["route"]}], [{"address_components": [{"long_name": "State of Roraima", "short_name": "RR", "types": ["administrative_area_level_1", "political"]}, {"long_name": "Brazil", "short_name": "BR", "types": ["country", "political"]}], "formatted_address": "State of Roraima, Brazil", "geometry": {"bounds": {"northeast": {"lat": 5.2718389, "lng": -58.88687820000001}, "southwest": {"lat": -1.5806358, "lng": -64.8252444}}, "location": {"lat": 2.7375971, "lng": -62.0750998}, "location_type": "APPROXIMATE", "viewport": {"northeast": {"lat": 5.2718389, "lng": -58.88687820000001}, "southwest": {"lat": -1.5806358, "lng": -64.8252444}}}, "partial_match": true, "place_id": "ChIJW_TM33EGk40RFHqcnvIAX2k", "types": ["administrative_area_level_1", "political"]}], [{"address_components": [{"long_name": "6479", "short_name": "6479", "types": ["street_number"]}, {"long_name": "Avenida Get\u00falio Vargas", "short_name": "Av. Get\u00falio Vargas", "types": ["route"]}, {"long_name": "Centro", "short_name": "Centro", "types": ["political", "sublocality", "sublocality_level_1"]}, {"long_name": "Boa Vista", "short_name": "Boa Vista", "types": ["administrative_area_level_2", "political"]}, {"long_name": "Roraima", "short_name": "RR", "types": ["administrative_area_level_1", "political"]}, {"long_name": "Brazil", "short_name": "BR", "types": ["country", "political"]}, {"long_name": "69301-077", "short_name": "69301-077", "types": ["postal_code"]}], "formatted_address": "Av. Get\u00falio Vargas, 6479 - Centro, Boa Vista - RR, 69301-077, Brazil", "geometry": {"location": {"lat": 2.814467, "lng": -60.67332099999999}, "location_type": "ROOFTOP", "viewport": {"northeast": {"lat": 2.815815980291502, "lng": -60.67197201970849}, "southwest": {"lat": 2.813118019708499, "lng": -60.6746699802915}}}, "place_id": "ChIJwwpNPHgGk40RDbrE9Ny1I8c", "plus_code": {"compound_code": "R87G+QM Boa Vista, State of Roraima, Brazil", "global_code": "67JXR87G+QM"}, "types": ["street_address"]}], [{"address_components": [{"long_name": "RR Garden Shopping", "short_name": "RR Garden Shopping", "types": ["premise"]}, {"long_name": "1604", "short_name": "1604", "types": ["street_number"]}, {"long_name": "Avenida Ville Roy", "short_name": "Av. Ville Roy", "types": ["route"]}, {"long_name": "Ca\u00e7ari", "short_name": "Ca\u00e7ari", "types": ["political", "sublocality", "sublocality_level_1"]}, {"long_name": "Boa Vista", "short_name": "Boa Vista", "types": ["administrative_area_level_2", "political"]}, {"long_name": "Roraima", "short_name": "RR", "types": ["administrative_area_level_1", "political"]}, {"long_name": "Brazil", "short_name": "BR", "types": ["country", "political"]}, {"long_name": "69307-725", "short_name": "69307-725", "types": ["postal_code"]}], "formatted_address": "RR Garden Shopping - Av. Ville Roy, 1604 - Ca\u00e7ari, Boa Vista - RR, 69307-725, Brazil", "geometry": {"location": {"lat": 2.855355, "lng": -60.645626}, "location_type": "ROOFTOP", "viewport": {"northeast": {"lat": 2.856703980291502, "lng": -60.6442770197085}, "southwest": {"lat": 2.854006019708498, "lng": -60.6469749802915}}}, "place_id": "ChIJk245iZMIk40Rsu3Mzr6ZqkU", "plus_code": {"compound_code": "V943+4P Boa Vista, State of Roraima, Brazil", "global_code": "67JXV943+4P"}, "types": ["street_address"]}], [{"address_components": [{"long_name": "1264", "short_name": "1264", "types": ["street_number"]}, {"long_name": "Avenida Sebasti\u00e3o Diniz", "short_name": "Av. Sebasti\u00e3o Diniz", "types": ["route"]}, {"long_name": "Centro", "short_name": "Centro", "types": ["political", "sublocality", "sublocality_level_1"]}, {"long_name": "Boa Vista", "short_name": "Boa Vista", "types": ["administrative_area_level_2", "political"]}, {"long_name": "Roraima", "short_name": "RR", "types": ["administrative_area_level_1", "political"]}, {"long_name": "Brazil", "short_name": "BR", "types": ["country", "political"]}, {"long_name": "69301-040", "short_name": "69301-040", "types": ["postal_code"]}], "formatted_address": "Av. Sebasti\u00e3o Diniz, 1264 - Centro, Boa Vista - RR, 69301-040, Brazil", "geometry": {"location": {"lat": 2.81503, "lng": -60.67145}, "location_type": "ROOFTOP", "viewport": {"northeast": {"lat": 2.816378980291502, "lng": -60.6701010197085}, "southwest": {"lat": 2.813681019708498, "lng": -60.6727989802915}}}, "place_id": "ChIJR4Ok13kGk40RRgBNXgJrzLQ", "plus_code": {"compound_code": "R88H+2C Boa Vista, State of Roraima, Brazil", "global_code": "67JXR88H+2C"}, "types": ["street_address"]}], [{"address_components": [{"long_name": "Avenida Airton Senna", "short_name": "Av. Airton Senna", "types": ["route"]}, {"long_name": "Rorain\u00f3polis", "short_name": "Rorain\u00f3polis", "types": ["administrative_area_level_2", "political"]}, {"long_name": "Roraima", "short_name": "RR", "types": ["administrative_area_level_1", "political"]}, {"long_name": "Brazil", "short_name": "BR", "types": ["country", "political"]}, {"long_name": "69373-000", "short_name": "69373-000", "types": ["postal_code"]}], "formatted_address": "Av. Airton Senna, Rorain\u00f3polis - RR, 69373-000, Brazil", "geometry": {"bounds": {"northeast": {"lat": 0.9427658, "lng": -60.42670570000001}, "southwest": {"lat": 0.9358316, "lng": -60.44428199999999}}, "location": {"lat": 0.9391392000000001, "lng": -60.43522859999999}, "location_type": "GEOMETRIC_CENTER", "viewport": {"northeast": {"lat": 0.9427658, "lng": -60.42670570000001}, "southwest": {"lat": 0.9358316, "lng": -60.44428199999999}}}, "partial_match": true, "place_id": "ChIJAx5S5hiFi40RwPdRDrM9_c0", "types": ["route"]}], [{"address_components": [{"long_name": "Avenida Bem-Querer", "short_name": "Av. Bem-Querer", "types": ["route"]}, {"long_name": "Caracara\u00ed", "short_name": "Caracara\u00ed", "types": ["administrative_area_level_2", "political"]}, {"long_name": "Roraima", "short_name": "RR", "types": ["administrative_area_level_1", "political"]}, {"long_name": "Brazil", "short_name": "BR", "types": ["country", "political"]}, {"long_name": "69360-000", "short_name": "69360-000", "types": ["postal_code"]}], "formatted_address": "Av. Bem-Querer, Caracara\u00ed - RR, 69360-000, Brazil", "geometry": {"bounds": {"northeast": {"lat": 1.824931, "lng": -61.1279404}, "southwest": {"lat": 1.8043125, "lng": -61.1359504}}, "location": {"lat": 1.8142, "lng": -61.1308808}, "location_type": "GEOMETRIC_CENTER", "viewport": {"northeast": {"lat": 1.824931, "lng": -61.1279404}, "southwest": {"lat": 1.8043125, "lng": -61.1359504}}}, "place_id": "ChIJE5IVdfk5jY0RnAnJjqcySHc", "types": ["route"]}], [{"address_components": [{"long_name": "513", "short_name": "513", "types": ["street_number"]}, {"long_name": "Avenida Brigadeiro Eduardo Gomes", "short_name": "Av. Brg. Eduardo Gomes", "types": ["route"]}, {"long_name": "Aparecida", "short_name": "Aparecida", "types": ["political", "sublocality", "sublocality_level_1"]}, {"long_name": "Boa Vista", "short_name": "Boa Vista", "types": ["administrative_area_level_2", "political"]}, {"long_name": "Roraima", "short_name": "RR", "types": ["administrative_area_level_1", "political"]}, {"long_name": "Brazil", "short_name": "BR", "types": ["country", "political"]}, {"long_name": "69305-010", "short_name": "69305-010", "types": ["postal_code"]}], "formatted_address": "Av. Brg. Eduardo Gomes, 513 - Aparecida, Boa Vista - RR, 69305-010, Brazil", "geometry": {"location": {"lat": 2.8439904, "lng": -60.6663982}, "location_type": "RANGE_INTERPOLATED", "viewport": {"northeast": {"lat": 2.845339380291502, "lng": -60.66504921970849}, "southwest": {"lat": 2.842641419708498, "lng": -60.6677471802915}}}, "place_id": "EkpBdi4gQnJnLiBFZHVhcmRvIEdvbWVzLCA1MTMgLSBBcGFyZWNpZGEsIEJvYSBWaXN0YSAtIFJSLCA2OTMwNS0wMTAsIEJyYXNpbCIbEhkKFAoSCR3n-BypCJONERinlMR6MnalEIEE", "types": ["street_address"]}], [{"address_components": [{"long_name": "130", "short_name": "130", "types": ["street_number"]}, {"long_name": "Avenida Capit\u00e3o Ene Garc\u00eas", "short_name": "Av. Cap. Ene Garc\u00eas", "types": ["route"]}, {"long_name": "Centro", "short_name": "Centro", "types": ["political", "sublocality", "sublocality_level_1"]}, {"long_name": "Boa Vista", "short_name": "Boa Vista", "types": ["administrative_area_level_2", "political"]}, {"long_name": "Roraima", "short_name": "RR", "types": ["administrative_area_level_1", "political"]}, {"long_name": "Brazil", "short_name": "BR", "types": ["country", "political"]}, {"long_name": "69301-000", "short_name": "69301-000", "types": ["postal_code"]}], "formatted_address": "Av. Cap. Ene Garc\u00eas, 130 - Centro, Boa Vista - RR, 69301-000, Brazil", "geometry": {"location": {"lat": 2.8227977, "lng": -60.6739216}, "location_type": "ROOFTOP", "viewport": {"northeast": {"lat": 2.824146680291502, "lng": -60.6725726197085}, "southwest": {"lat": 2.821448719708498, "lng": -60.6752705802915}}}, "place_id": "ChIJUadyaXUGk40RGiMCNUTOClQ", "plus_code": {"compound_code": "R8FG+4C Boa Vista, State of Roraima, Brazil", "global_code": "67JXR8FG+4C"}, "types": ["street_address"]}], [{"address_components": [{"long_name": "QUADRA 200", "short_name": "QUADRA 200", "types": ["subpremise"]}, {"long_name": "1671", "short_name": "1671", "types": ["street_number"]}, {"long_name": "Avenida Presidente Castelo Branco", "short_name": "Av. Pres. Castelo Branco", "types": ["route"]}, {"long_name": "Calunga", "short_name": "Calunga", "types": ["political", "sublocality", "sublocality_level_1"]}, {"long_name": "Boa Vista", "short_name": "Boa Vista", "types": ["administrative_area_level_2", "political"]}, {"long_name": "Roraima", "short_name": "RR", "types": ["administrative_area_level_1", "political"]}, {"long_name": "Brazil", "short_name": "BR", "types": ["country", "political"]}, {"long_name": "69301-040", "short_name": "69301-040", "types": ["postal_code"]}], "formatted_address": "Av. Pres. Castelo Branco, 1671 - QUADRA 200 - Calunga, Boa Vista - RR, 69301-040, Brazil", "geometry": {"location": {"lat": 2.8083044, "lng": -60.67763499999999}, "location_type": "ROOFTOP", "viewport": {"northeast": {"lat": 2.809653380291502, "lng": -60.67628601970848}, "southwest": {"lat": 2.806955419708498, "lng": -60.6789839802915}}}, "partial_match": true, "place_id": "ElhRVUFEUkEgMjAwIC0gQXYuIFByZXMuIENhc3RlbG8gQnJhbmNvLCAxNjcxIC0gQ2FsdW5nYSwgQm9hIFZpc3RhIC0gUlIsIDY5MzAxLTA0MCwgQnJhc2lsIiYaJAoWChQKEgnHzAgD1QWTjRFSal5P9D6iqBIKUVVBRFJBIDIwMA", "types": ["subpremise"]}], [{"address_components": [{"long_name": "S/N", "short_name": "S/N", "types": ["subpremise"]}, {"long_name": "277", "short_name": "277", "types": ["street_number"]}, {"long_name": "Avenida Centen\u00e1rio", "short_name": "Av. Centen\u00e1rio", "types": ["route"]}, {"long_name": "Centen\u00e1rio", "short_name": "Centen\u00e1rio", "types": ["political", "sublocality", "sublocality_level_1"]}, {"long_name": "Boa Vista", "short_name": "Boa Vista", "types": ["administrative_area_level_2", "political"]}, {"long_name": "Roraima", "short_name": "RR", "types": ["administrative_area_level_1", "political"]}, {"long_name": "Brazil", "short_name": "BR", "types": ["country", "political"]}, {"long_name": "69312-603", "short_name": "69312-603", "types": ["postal_code"]}], "formatted_address": "Av. Centen\u00e1rio, 277 - S/N - Centen\u00e1rio, Boa Vista - RR, 69312-603, Brazil", "geometry": {"location": {"lat": 2.7962082, "lng": -60.6993702}, "location_type": "ROOFTOP", "viewport": {"northeast": {"lat": 2.797557180291502, "lng": -60.69802121970849}, "southwest": {"lat": 2.794859219708498, "lng": -60.70071918029151}}}, "place_id": "EktTL04gLSBBdi4gQ2VudGVuw6FyaW8sIDI3NyAtIENlbnRlbsOhcmlvLCBCb2EgVmlzdGEgLSBSUiwgNjkzMTItNjAzLCBCcmFzaWwiJBoiChsSGQoUChIJAZOohEcEk40RCZsZ5YH-sK8QlQISA1MvTg", "types": ["subpremise"]}], [{"address_components": [{"long_name": "857", "short_name": "857", "types": ["street_number"]}, {"long_name": "Avenida dos Garimpeiros", "short_name": "Av. dos Garimpeiros", "types": ["route"]}, {"long_name": "Jardim Equatorial", "short_name": "Jardim Equatorial", "types": ["political", "sublocality", "sublocality_level_1"]}, {"long_name": "Boa Vista", "short_name": "Boa Vista", "types": ["administrative_area_level_2", "political"]}, {"long_name": "Roraima", "short_name": "RR", "types": ["administrative_area_level_1", "political"]}, {"long_name": "Brazil", "short_name": "BR", "types": ["country", "political"]}, {"long_name": "69317-181", "short_name": "69317-181", "types": ["postal_code"]}], "formatted_address": "Av. dos Garimpeiros, 857 - Jardim Equatorial, Boa Vista - RR, 69317-181, Brazil", "geometry": {"location": {"lat": 2.8194494, "lng": -60.7538355}, "location_type": "ROOFTOP", "viewport": {"northeast": {"lat": 2.820798380291502, "lng": -60.7524865197085}, "southwest": {"lat": 2.818100419708498, "lng": -60.7551844802915}}}, "place_id": "ChIJ-cZG-ToFk40R2CHaLIvbUe4", "plus_code": {"compound_code": "R69W+QF Boa Vista, State of Roraima, Brazil", "global_code": "67JXR69W+QF"}, "types": ["street_address"]}], [{"address_components": [{"long_name": "751", "short_name": "751", "types": ["street_number"]}, {"long_name": "Avenida Francisco Viana", "short_name": "Av. Francisco Viana", "types": ["route"]}, {"long_name": "Cauam\u00e9", "short_name": "Cauam\u00e9", "types": ["political", "sublocality", "sublocality_level_1"]}, {"long_name": "Boa Vista", "short_name": "Boa Vista", "types": ["administrative_area_level_2", "political"]}, {"long_name": "Roraima", "short_name": "RR", "types": ["administrative_area_level_1", "political"]}, {"long_name": "Brazil", "short_name": "BR", "types": ["country", "political"]}, {"long_name": "69311-057", "short_name": "69311-057", "types": ["postal_code"]}], "formatted_address": "Av. Francisco Viana, 751 - Cauam\u00e9, Boa Vista - RR, 69311-057, Brazil", "geometry": {"location": {"lat": 2.8472369, "lng": -60.715231}, "location_type": "ROOFTOP", "viewport": {"northeast": {"lat": 2.848585880291502, "lng": -60.71388201970849}, "southwest": {"lat": 2.845887919708498, "lng": -60.71657998029151}}}, "partial_match": true, "place_id": "ChIJsdYx-XsPk40RFCO96yOTk2Y", "plus_code": {"compound_code": "R7WM+VW Boa Vista, State of Roraima, Brazil", "global_code": "67JXR7WM+VW"}, "types": ["street_address"]}], [{"address_components": [{"long_name": "751", "short_name": "751", "types": ["street_number"]}, {"long_name": "Avenida Francisco Viana", "short_name": "Av. Francisco Viana", "types": ["route"]}, {"long_name": "Cauam\u00e9", "short_name": "Cauam\u00e9", "types": ["political", "sublocality", "sublocality_level_1"]}, {"long_name": "Boa Vista", "short_name": "Boa Vista", "types": ["administrative_area_level_2", "political"]}, {"long_name": "Roraima", "short_name": "RR", "types": ["administrative_area_level_1", "political"]}, {"long_name": "Brazil", "short_name": "BR", "types": ["country", "political"]}, {"long_name": "69311-057", "short_name": "69311-057", "types": ["postal_code"]}], "formatted_address": "Av. Francisco Viana, 751 - Cauam\u00e9, Boa Vista - RR, 69311-057, Brazil", "geometry": {"location": {"lat": 2.8472369, "lng": -60.715231}, "location_type": "ROOFTOP", "viewport": {"northeast": {"lat": 2.848585880291502, "lng": -60.71388201970849}, "southwest": {"lat": 2.845887919708498, "lng": -60.71657998029151}}}, "place_id": "ChIJsdYx-XsPk40RFCO96yOTk2Y", "plus_code": {"compound_code": "R7WM+VW Boa Vista, State of Roraima, Brazil", "global_code": "67JXR7WM+VW"}, "types": ["street_address"]}], [{"address_components": [{"long_name": "4662", "short_name": "4662", "types": ["street_number"]}, {"long_name": "Avenida Get\u00falio Vargas", "short_name": "Av. Get\u00falio Vargas", "types": ["route"]}, {"long_name": "S\u00e3o Pedro", "short_name": "S\u00e3o Pedro", "types": ["political", "sublocality", "sublocality_level_1"]}, {"long_name": "Boa Vista", "short_name": "Boa Vista", "types": ["administrative_area_level_2", "political"]}, {"long_name": "Roraima", "short_name": "RR", "types": ["administrative_area_level_1", "political"]}, {"long_name": "Brazil", "short_name": "BR", "types": ["country", "political"]}, {"long_name": "69306-700", "short_name": "69306-700", "types": ["postal_code"]}], "formatted_address": "Av. Get\u00falio Vargas, 4662 - S\u00e3o Pedro, Boa Vista - RR, 69306-700, Brazil", "geometry": {"location": {"lat": 2.826887, "lng": -60.662896}, "location_type": "ROOFTOP", "viewport": {"northeast": {"lat": 2.828235980291502, "lng": -60.66154701970849}, "southwest": {"lat": 2.825538019708498, "lng": -60.6642449802915}}}, "place_id": "ChIJWSsVcxIGk40RCVfIuBZ_zB0", "plus_code": {"compound_code": "R8GP+QR Boa Vista, State of Roraima, Brazil", "global_code": "67JXR8GP+QR"}, "types": ["street_address"]}], [{"address_components": [{"long_name": "Rua Jos\u00e9 Bonif\u00e1cio", "short_name": "R. Jos\u00e9 Bonif\u00e1cio", "types": ["route"]}, {"long_name": "Mucaja\u00ed", "short_name": "Mucaja\u00ed", "types": ["administrative_area_level_2", "political"]}, {"long_name": "Roraima", "short_name": "RR", "types": ["administrative_area_level_1", "political"]}, {"long_name": "Brazil", "short_name": "BR", "types": ["country", "political"]}, {"long_name": "69340-000", "short_name": "69340-000", "types": ["postal_code"]}], "formatted_address": "R. Jos\u00e9 Bonif\u00e1cio, Mucaja\u00ed - RR, 69340-000, Brazil", "geometry": {"bounds": {"northeast": {"lat": 2.4458131, "lng": -60.9147358}, "southwest": {"lat": 2.4449929, "lng": -60.92637079999999}}, "location": {"lat": 2.4452583, "lng": -60.92074869999999}, "location_type": "GEOMETRIC_CENTER", "viewport": {"northeast": {"lat": 2.446751980291502, "lng": -60.9147358}, "southwest": {"lat": 2.444054019708498, "lng": -60.92637079999999}}}, "partial_match": true, "place_id": "ChIJdyoXU93qko0RQJbHWK0dB4c", "types": ["route"]}], [{"address_components": [{"long_name": "Avenida Presidente Kenedy", "short_name": "Av. Pres. Kenedy", "types": ["route"]}, {"long_name": "Caracara\u00ed", "short_name": "Caracara\u00ed", "types": ["administrative_area_level_2", "political"]}, {"long_name": "Roraima", "short_name": "RR", "types": ["administrative_area_level_1", "political"]}, {"long_name": "Brazil", "short_name": "BR", "types": ["country", "political"]}, {"long_name": "69360-000", "short_name": "69360-000", "types": ["postal_code"]}], "formatted_address": "Av. Pres. Kenedy, Caracara\u00ed - RR, 69360-000, Brazil", "geometry": {"bounds": {"northeast": {"lat": 1.8248799, "lng": -61.125756}, "southwest": {"lat": 1.7863862, "lng": -61.1417761}}, "location": {"lat": 1.8050799, "lng": -61.1332543}, "location_type": "GEOMETRIC_CENTER", "viewport": {"northeast": {"lat": 1.8248799, "lng": -61.125756}, "southwest": {"lat": 1.7863862, "lng": -61.1417761}}}, "place_id": "ChIJrclRAPk5jY0RCcBlf606b3Q", "types": ["route"]}], [{"address_components": [{"long_name": "1264", "short_name": "1264", "types": ["street_number"]}, {"long_name": "Avenida Sebasti\u00e3o Diniz", "short_name": "Av. Sebasti\u00e3o Diniz", "types": ["route"]}, {"long_name": "Centro", "short_name": "Centro", "types": ["political", "sublocality", "sublocality_level_1"]}, {"long_name": "Boa Vista", "short_name": "Boa Vista", "types": ["administrative_area_level_2", "political"]}, {"long_name": "Roraima", "short_name": "RR", "types": ["administrative_area_level_1", "political"]}, {"long_name": "Brazil", "short_name": "BR", "types": ["country", "political"]}, {"long_name": "69301-040", "short_name": "69301-040", "types": ["postal_code"]}], "formatted_address": "Av. Sebasti\u00e3o Diniz, 1264 - Centro, Boa Vista - RR, 69301-040, Brazil", "geometry": {"location": {"lat": 2.81503, "lng": -60.67145}, "location_type": "ROOFTOP", "viewport": {"northeast": {"lat": 2.816378980291502, "lng": -60.6701010197085}, "southwest": {"lat": 2.813681019708498, "lng": -60.6727989802915}}}, "place_id": "ChIJR4Ok13kGk40RRgBNXgJrzLQ", "plus_code": {"compound_code": "R88H+2C Boa Vista, State of Roraima, Brazil", "global_code": "67JXR88H+2C"}, "types": ["street_address"]}], [{"address_components": [{"long_name": "1247", "short_name": "1247", "types": ["street_number"]}, {"long_name": "Avenida Surumu", "short_name": "Av. Surumu", "types": ["route"]}, {"long_name": "S\u00e3o Vicente", "short_name": "S\u00e3o Vicente", "types": ["political", "sublocality", "sublocality_level_1"]}, {"long_name": "Boa Vista", "short_name": "Boa Vista", "types": ["administrative_area_level_2", "political"]}, {"long_name": "Roraima", "short_name": "RR", "types": ["administrative_area_level_1", "political"]}, {"long_name": "Brazil", "short_name": "BR", "types": ["country", "political"]}, {"long_name": "69303-455", "short_name": "69303-455", "types": ["postal_code"]}], "formatted_address": "Av. Surumu, 1247 - S\u00e3o Vicente, Boa Vista - RR, 69303-455, Brazil", "geometry": {"location": {"lat": 2.8100999, "lng": -60.68371989999999}, "location_type": "RANGE_INTERPOLATED", "viewport": {"northeast": {"lat": 2.811448880291502, "lng": -60.68237091970849}, "southwest": {"lat": 2.808750919708498, "lng": -60.6850688802915}}}, "place_id": "EkJBdi4gU3VydW11LCAxMjQ3IC0gU8OjbyBWaWNlbnRlLCBCb2EgVmlzdGEgLSBSUiwgNjkzMDMtNDU1LCBCcmFzaWwiGxIZChQKEgnZZ8y10wWTjRGYygoaQY9pOhDfCQ", "types": ["street_address"]}], [{"address_components": [{"long_name": "1247", "short_name": "1247", "types": ["street_number"]}, {"long_name": "Avenida Surumu", "short_name": "Av. Surumu", "types": ["route"]}, {"long_name": "S\u00e3o Vicente", "short_name": "S\u00e3o Vicente", "types": ["political", "sublocality", "sublocality_level_1"]}, {"long_name": "Boa Vista", "short_name": "Boa Vista", "types": ["administrative_area_level_2", "political"]}, {"long_name": "Roraima", "short_name": "RR", "types": ["administrative_area_level_1", "political"]}, {"long_name": "Brazil", "short_name": "BR", "types": ["country", "political"]}, {"long_name": "69303-455", "short_name": "69303-455", "types": ["postal_code"]}], "formatted_address": "Av. Surumu, 1247 - S\u00e3o Vicente, Boa Vista - RR, 69303-455, Brazil", "geometry": {"location": {"lat": 2.8100999, "lng": -60.68371989999999}, "location_type": "RANGE_INTERPOLATED", "viewport": {"northeast": {"lat": 2.811448880291502, "lng": -60.68237091970849}, "southwest": {"lat": 2.808750919708498, "lng": -60.6850688802915}}}, "place_id": "EkJBdi4gU3VydW11LCAxMjQ3IC0gU8OjbyBWaWNlbnRlLCBCb2EgVmlzdGEgLSBSUiwgNjkzMDMtNDU1LCBCcmFzaWwiGxIZChQKEgnZZ8y10wWTjRGYygoaQY9pOhDfCQ", "types": ["street_address"]}], [{"address_components": [{"long_name": "Avenida S\u00e3o Jos\u00e9", "short_name": "Av. S\u00e3o Jos\u00e9", "types": ["route"]}, {"long_name": "Boa Vista", "short_name": "Boa Vista", "types": ["administrative_area_level_2", "political"]}, {"long_name": "Roraima", "short_name": "RR", "types": ["administrative_area_level_1", "political"]}, {"long_name": "Brazil", "short_name": "BR", "types": ["country", "political"]}], "formatted_address": "Av. S\u00e3o Jos\u00e9, Boa Vista - RR, Brazil", "geometry": {"bounds": {"northeast": {"lat": 2.8224522, "lng": -60.7562989}, "southwest": {"lat": 2.8097954, "lng": -60.7592045}}, "location": {"lat": 2.8158498, "lng": -60.75766900000001}, "location_type": "GEOMETRIC_CENTER", "viewport": {"northeast": {"lat": 2.8224522, "lng": -60.7562989}, "southwest": {"lat": 2.8097954, "lng": -60.7592045}}}, "place_id": "ChIJD0l9NDAFk40R_5662fLTzyQ", "types": ["route"]}], [{"address_components": [{"long_name": "1077", "short_name": "1077", "types": ["street_number"]}, {"long_name": "Avenida S\u00e3o Paulo", "short_name": "Av. S\u00e3o Paulo", "types": ["route"]}, {"long_name": "Centro", "short_name": "Centro", "types": ["political", "sublocality", "sublocality_level_1"]}, {"long_name": "S\u00e3o Jo\u00e3o da Baliza", "short_name": "S\u00e3o Jo\u00e3o da Baliza", "types": ["administrative_area_level_2", "political"]}, {"long_name": "Roraima", "short_name": "RR", "types": ["administrative_area_level_1", "political"]}, {"long_name": "Brazil", "short_name": "BR", "types": ["country", "political"]}, {"long_name": "69375-000", "short_name": "69375-000", "types": ["postal_code"]}], "formatted_address": "Av. S\u00e3o Paulo, 1077 - Centro, S\u00e3o Jo\u00e3o da Baliza - RR, 69375-000, Brazil", "geometry": {"location": {"lat": 0.9509886, "lng": -59.9116014}, "location_type": "ROOFTOP", "viewport": {"northeast": {"lat": 0.9523375802915021, "lng": -59.91025241970849}, "southwest": {"lat": 0.949639619708498, "lng": -59.91295038029151}}}, "place_id": "ChIJT_lV8Ir8i40RaO4zzez0av4", "plus_code": {"compound_code": "X32Q+99 S\u00e3o Jo\u00e3o da Baliza, State of Roraima, Brazil", "global_code": "68G2X32Q+99"}, "types": ["establishment", "local_government_office", "point_of_interest"]}], [{"address_components": [{"long_name": "s/n", "short_name": "s/n", "types": ["street_number"]}, {"long_name": "Rua Ruth Pinheiro", "short_name": "Rua Ruth Pinheiro", "types": ["route"]}, {"long_name": "Tancredo", "short_name": "Tancredo", "types": ["political", "sublocality", "sublocality_level_1"]}, {"long_name": "Boa Vista", "short_name": "Boa Vista", "types": ["administrative_area_level_2", "political"]}, {"long_name": "Roraima", "short_name": "RR", "types": ["administrative_area_level_1", "political"]}, {"long_name": "Brazil", "short_name": "BR", "types": ["country", "political"]}, {"long_name": "69314-186", "short_name": "69314-186", "types": ["postal_code"]}], "formatted_address": "Rua Ruth Pinheiro, s/n - Tancredo, Boa Vista - RR, 69314-186, Brazil", "geometry": {"location": {"lat": 2.8198391, "lng": -60.728222}, "location_type": "ROOFTOP", "viewport": {"northeast": {"lat": 2.821188080291502, "lng": -60.72687301970848}, "southwest": {"lat": 2.818490119708499, "lng": -60.7295709802915}}}, "place_id": "ChIJEVbtixIFk40RtezFoz6Xxjw", "plus_code": {"compound_code": "R79C+WP Boa Vista, State of Roraima, Brazil", "global_code": "67JXR79C+WP"}, "types": ["establishment", "health", "point_of_interest"]}], [{"address_components": [{"long_name": "5066", "short_name": "5066", "types": ["street_number"]}, {"long_name": "Avenida Ville Roy", "short_name": "Av. Ville Roy", "types": ["route"]}, {"long_name": "S\u00e3o Pedro", "short_name": "S\u00e3o Pedro", "types": ["political", "sublocality", "sublocality_level_1"]}, {"long_name": "Boa Vista", "short_name": "Boa Vista", "types": ["administrative_area_level_2", "political"]}, {"long_name": "Roraima", "short_name": "RR", "types": ["administrative_area_level_1", "political"]}, {"long_name": "Brazil", "short_name": "BR", "types": ["country", "political"]}, {"long_name": "69305-098", "short_name": "69305-098", "types": ["postal_code"]}], "formatted_address": "Av. Ville Roy, 5066 - S\u00e3o Pedro, Boa Vista - RR, 69305-098, Brazil", "geometry": {"location": {"lat": 2.829103, "lng": -60.66588899999999}, "location_type": "ROOFTOP", "viewport": {"northeast": {"lat": 2.830451980291502, "lng": -60.66454001970849}, "southwest": {"lat": 2.827754019708498, "lng": -60.6672379802915}}}, "place_id": "ChIJta4qZw4Gk40RSkxyDYdFazw", "plus_code": {"compound_code": "R8HM+JJ Boa Vista, State of Roraima, Brazil", "global_code": "67JXR8HM+JJ"}, "types": ["street_address"]}], [{"address_components": [{"long_name": "Rua Jo\u00e3o Alencar", "short_name": "R. Jo\u00e3o Alencar", "types": ["route"]}, {"long_name": "Cauam\u00e9", "short_name": "Cauam\u00e9", "types": ["political", "sublocality", "sublocality_level_1"]}, {"long_name": "Boa Vista", "short_name": "Boa Vista", "types": ["administrative_area_level_2", "political"]}, {"long_name": "Roraima", "short_name": "RR", "types": ["administrative_area_level_1", "political"]}, {"long_name": "Brazil", "short_name": "BR", "types": ["country", "political"]}, {"long_name": "69311", "short_name": "69311", "types": ["postal_code", "postal_code_prefix"]}], "formatted_address": "R. Jo\u00e3o Alencar - Cauam\u00e9, Boa Vista - RR, Brazil", "geometry": {"bounds": {"northeast": {"lat": 2.8487842, "lng": -60.70541480000001}, "southwest": {"lat": 2.8461522, "lng": -60.70727559999999}}, "location": {"lat": 2.847663, "lng": -60.7062162}, "location_type": "GEOMETRIC_CENTER", "viewport": {"northeast": {"lat": 2.848817180291502, "lng": -60.70499621970849}, "southwest": {"lat": 2.846119219708498, "lng": -60.7076941802915}}}, "partial_match": true, "place_id": "ChIJoTMHZWQPk40Rf8i6ggazfuA", "types": ["route"]}], [{"address_components": [{"long_name": "Avenida Airton Senna", "short_name": "Av. Airton Senna", "types": ["route"]}, {"long_name": "Campol\u00e2ndia", "short_name": "Campol\u00e2ndia", "types": ["political", "sublocality", "sublocality_level_1"]}, {"long_name": "Rorain\u00f3polis", "short_name": "Rorain\u00f3polis", "types": ["administrative_area_level_2", "political"]}, {"long_name": "Roraima", "short_name": "RR", "types": ["administrative_area_level_1", "political"]}, {"long_name": "Brazil", "short_name": "BR", "types": ["country", "political"]}, {"long_name": "69373-000", "short_name": "69373-000", "types": ["postal_code"]}], "formatted_address": "Av. Airton Senna - Campol\u00e2ndia, Rorain\u00f3polis - RR, 69373-000, Brazil", "geometry": {"bounds": {"northeast": {"lat": 0.9408514, "lng": -60.430343}, "southwest": {"lat": 0.9372839000000001, "lng": -60.4399436}}, "location": {"lat": 0.9391392000000001, "lng": -60.43522859999999}, "location_type": "GEOMETRIC_CENTER", "viewport": {"northeast": {"lat": 0.9408514, "lng": -60.430343}, "southwest": {"lat": 0.9372839000000001, "lng": -60.4399436}}}, "place_id": "EkZBdi4gQWlydG9uIFNlbm5hIC0gQ2FtcG9sw6JuZGlhLCBSb3JhaW7Ds3BvbGlzIC0gUlIsIDY5MzczLTAwMCwgQnJhc2lsIkgqRgoUChIJAx5S5hiFi40RwPdRDrM9_c0SFAoSCdEmy-MYhYuNEd8UvWgDPWTZGhgKCg2nBI8AFbSY-dsSCg0CkI8AFboP-9s", "types": ["route"]}], [{"address_components": [{"long_name": "Avenida Brasil", "short_name": "Av. Brasil", "types": ["route"]}, {"long_name": "Bela Vista", "short_name": "Bela Vista", "types": ["political", "sublocality", "sublocality_level_1"]}, {"long_name": "Boa Vista", "short_name": "Boa Vista", "types": ["administrative_area_level_2", "political"]}, {"long_name": "Roraima", "short_name": "RR", "types": ["administrative_area_level_1", "political"]}, {"long_name": "Brazil", "short_name": "BR", "types": ["country", "political"]}], "formatted_address": "Av. Brasil - Bela Vista, Boa Vista - RR, Brazil", "geometry": {"bounds": {"northeast": {"lat": 2.7693602, "lng": -60.71835410000001}, "southwest": {"lat": 2.764091, "lng": -60.7251966}}, "location": {"lat": 2.7667126, "lng": -60.7217904}, "location_type": "GEOMETRIC_CENTER", "viewport": {"northeast": {"lat": 2.7693602, "lng": -60.71835410000001}, "southwest": {"lat": 2.764091, "lng": -60.7251966}}}, "place_id": "Ei9Bdi4gQnJhc2lsIC0gQmVsYSBWaXN0YSwgQm9hIFZpc3RhIC0gUlIsIEJyYXNpbCJIKkYKFAoSCb-Tbl1-BJONEdm3vj1hJMmjEhQKEgmpFSlWfwOTjREx_iMG3B5_tRoYCgoNTsSlARUCEs7bEgoNIpKmARVLHc_b", "types": ["route"]}], [{"address_components": [{"long_name": "Avenida Brigadeiro Eduardo Gomes", "short_name": "Av. Brg. Eduardo Gomes", "types": ["route"]}, {"long_name": "S\u00e3o Francisco", "short_name": "S\u00e3o Francisco", "types": ["political", "sublocality", "sublocality_level_1"]}, {"long_name": "Boa Vista", "short_name": "Boa Vista", "types": ["administrative_area_level_2", "political"]}, {"long_name": "Roraima", "short_name": "RR", "types": ["administrative_area_level_1", "political"]}, {"long_name": "Brazil", "short_name": "BR", "types": ["country", "political"]}], "formatted_address": "Av. Brg. Eduardo Gomes - S\u00e3o Francisco, Boa Vista - RR, Brazil", "geometry": {"bounds": {"northeast": {"lat": 2.8395751, "lng": -60.6748935}, "southwest": {"lat": 2.8329885, "lng": -60.68665739999999}}, "location": {"lat": 2.8364797, "lng": -60.6803912}, "location_type": "GEOMETRIC_CENTER", "viewport": {"northeast": {"lat": 2.8395751, "lng": -60.6748935}, "southwest": {"lat": 2.8329885, "lng": -60.68665739999999}}}, "partial_match": true, "place_id": "Ej9Bdi4gQnJnLiBFZHVhcmRvIEdvbWVzIC0gU8OjbyBGcmFuY2lzY28sIEJvYSBWaXN0YSAtIFJSLCBCcmFzaWwiSCpGChQKEgltoMsb_AWTjRH8zs1d4wnfqBIUChIJJSSisuIFk40RaWlQYqg7mfYaGAoKDZ1HsAEVcvPT2xIKDedIsQEV-b7V2w", "types": ["route"]}], [{"address_components": [{"long_name": "Avenida Brigadeiro Eduardo Gomes", "short_name": "Av. Brg. Eduardo Gomes", "types": ["route"]}, {"long_name": "Trinta e Um de Mar\u00e7o", "short_name": "Trinta e Um de Mar\u00e7o", "types": ["political", "sublocality", "sublocality_level_1"]}, {"long_name": "Boa Vista", "short_name": "Boa Vista", "types": ["administrative_area_level_2", "political"]}, {"long_name": "Roraima", "short_name": "RR", "types": ["administrative_area_level_1", "political"]}, {"long_name": "Brazil", "short_name": "BR", "types": ["country", "political"]}], "formatted_address": "Av. Brg. Eduardo Gomes - Trinta e Um de Mar\u00e7o, Boa Vista - RR, Brazil", "geometry": {"bounds": {"northeast": {"lat": 2.8441119, "lng": -60.66675770000001}, "southwest": {"lat": 2.8387281, "lng": -60.6763108}}, "location": {"lat": 2.8414106, "lng": -60.6714738}, "location_type": "GEOMETRIC_CENTER", "viewport": {"northeast": {"lat": 2.8441119, "lng": -60.66675770000001}, "southwest": {"lat": 2.8387281, "lng": -60.6763108}}}, "place_id": "EkZBdi4gQnJnLiBFZHVhcmRvIEdvbWVzIC0gVHJpbnRhIGUgVW0gZGUgTWFyw6dvLCBCb2EgVmlzdGEgLSBSUiwgQnJhc2lsIkgqRgoUChIJbaDLG_wFk40R_M7NXeMJ36gSFAoSCYNC0QgBBpONEWK7PYiE010zGhgKCg3RJ7EBFZyH1dsSCg0f-rEBFcf81ts", "types": ["route"]}], [{"address_components": [{"long_name": "Avenida Centen\u00e1rio", "short_name": "Av. Centen\u00e1rio", "types": ["route"]}, {"long_name": "Centen\u00e1rio", "short_name": "Centen\u00e1rio", "types": ["political", "sublocality", "sublocality_level_1"]}, {"long_name": "Boa Vista", "short_name": "Boa Vista", "types": ["administrative_area_level_2", "political"]}, {"long_name": "Roraima", "short_name": "RR", "types": ["administrative_area_level_1", "political"]}, {"long_name": "Brazil", "short_name": "BR", "types": ["country", "political"]}], "formatted_address": "Av. Centen\u00e1rio - Centen\u00e1rio, Boa Vista - RR, Brazil", "geometry": {"bounds": {"northeast": {"lat": 2.8023913, "lng": -60.6983352}, "southwest": {"lat": 2.7962332, "lng": -60.7170077}}, "location": {"lat": 2.7990191, "lng": -60.7076235}, "location_type": "GEOMETRIC_CENTER", "viewport": {"northeast": {"lat": 2.8023913, "lng": -60.6983352}, "southwest": {"lat": 2.7962332, "lng": -60.7170077}}}, "place_id": "EjVBdi4gQ2VudGVuw6FyaW8gLSBDZW50ZW7DoXJpbywgQm9hIFZpc3RhIC0gUlIsIEJyYXNpbCJIKkYKFAoSCb18LnpPBJONEZBUh0NGpJAiEhQKEgm531g4XQSTjREqKYFWR1GGfhoYCgoN3KuqARXjUc_bEgoNaZyrARVIK9Lb", "types": ["route"]}], [{"address_components": [{"long_name": "Avenida Glaycon de Paiva", "short_name": "Av. Glaycon de Paiva", "types": ["route"]}, {"long_name": "Centro", "short_name": "Centro", "types": ["political", "sublocality", "sublocality_level_1"]}, {"long_name": "Boa Vista", "short_name": "Boa Vista", "types": ["administrative_area_level_2", "political"]}, {"long_name": "Roraima", "short_name": "RR", "types": ["administrative_area_level_1", "political"]}, {"long_name": "Brazil", "short_name": "BR", "types": ["country", "political"]}], "formatted_address": "Av. Glaycon de Paiva - Centro, Boa Vista - RR, Brazil", "geometry": {"bounds": {"northeast": {"lat": 2.8207351, "lng": -60.6736837}, "southwest": {"lat": 2.8176755, "lng": -60.68103109999999}}, "location": {"lat": 2.8192443, "lng": -60.67749329999999}, "location_type": "GEOMETRIC_CENTER", "viewport": {"northeast": {"lat": 2.8207351, "lng": -60.6736837}, "southwest": {"lat": 2.8176755, "lng": -60.68103109999999}}}, "place_id": "EjVBdi4gR2xheWNvbiBkZSBQYWl2YSAtIENlbnRybywgQm9hIFZpc3RhIC0gUlIsIEJyYXNpbCJIKkYKFAoSCfmKdY3aBZONERdoBuTzVXoaEhQKEgm_Wv0tdAaTjRGrUxXxQDHEERoYCgoNc_GtARU5z9TbEgoN92iuARU77tXb", "types": ["route"]}], [{"address_components": [{"long_name": "3013", "short_name": "3013", "types": ["street_number"]}, {"long_name": "Avenida Sebasti\u00e3o Diniz", "short_name": "Av. Sebasti\u00e3o Diniz", "types": ["route"]}, {"long_name": "Centro", "short_name": "Centro", "types": ["political", "sublocality", "sublocality_level_1"]}, {"long_name": "Boa Vista", "short_name": "Boa Vista", "types": ["administrative_area_level_2", "political"]}, {"long_name": "Roraima", "short_name": "RR", "types": ["administrative_area_level_1", "political"]}, {"long_name": "Brazil", "short_name": "BR", "types": ["country", "political"]}, {"long_name": "69301-040", "short_name": "69301-040", "types": ["postal_code"]}], "formatted_address": "Av. Sebasti\u00e3o Diniz, 3013 - Centro, Boa Vista - RR, 69301-040, Brazil", "geometry": {"location": {"lat": 2.803026500000001, "lng": -60.6816349}, "location_type": "ROOFTOP", "viewport": {"northeast": {"lat": 2.804375480291502, "lng": -60.68028591970849}, "southwest": {"lat": 2.801677519708499, "lng": -60.6829838802915}}}, "place_id": "ChIJD16iESwEk40R-jHNqkstYFI", "plus_code": {"compound_code": "R839+68 Boa Vista, State of Roraima, Brazil", "global_code": "67JXR839+68"}, "types": ["street_address"]}], [{"address_components": [{"long_name": "Avenida Ville Roy", "short_name": "Av. Ville Roy", "types": ["route"]}, {"long_name": "Ca\u00e7ari", "short_name": "Ca\u00e7ari", "types": ["political", "sublocality", "sublocality_level_1"]}, {"long_name": "Boa Vista", "short_name": "Boa Vista", "types": ["administrative_area_level_2", "political"]}, {"long_name": "Roraima", "short_name": "RR", "types": ["administrative_area_level_1", "political"]}, {"long_name": "Brazil", "short_name": "BR", "types": ["country", "political"]}], "formatted_address": "Av. Ville Roy - Ca\u00e7ari, Boa Vista - RR, Brazil", "geometry": {"bounds": {"northeast": {"lat": 2.8552882, "lng": -60.6427527}, "southwest": {"lat": 2.8400397, "lng": -60.65623499999999}}, "location": {"lat": 2.8474811, "lng": -60.6497103}, "location_type": "GEOMETRIC_CENTER", "viewport": {"northeast": {"lat": 2.8552882, "lng": -60.6427527}, "southwest": {"lat": 2.8400397, "lng": -60.65623499999999}}}, "partial_match": true, "place_id": "Ei9Bdi4gVmlsbGUgUm95IC0gQ2HDp2FyaSwgQm9hIFZpc3RhIC0gUlIsIEJyYXNpbCJIKkYKFAoSCXe3TP4aBpONEQsDDDAPY6DiEhQKEgm3p-bmkAiTjRHEbI6GQYGy8xoYCgoNDVuxARXSl9jbEgoNsq6zARV5ptrb", "types": ["route"]}], [{"address_components": [{"long_name": "Avenida Ville Roy", "short_name": "Av. Ville Roy", "types": ["route"]}, {"long_name": "S\u00e3o Vicente", "short_name": "S\u00e3o Vicente", "types": ["political", "sublocality", "sublocality_level_1"]}, {"long_name": "Boa Vista", "short_name": "Boa Vista", "types": ["administrative_area_level_2", "political"]}, {"long_name": "Roraima", "short_name": "RR", "types": ["administrative_area_level_1", "political"]}, {"long_name": "Brazil", "short_name": "BR", "types": ["country", "political"]}], "formatted_address": "Av. Ville Roy - S\u00e3o Vicente, Boa Vista - RR, Brazil", "geometry": {"bounds": {"northeast": {"lat": 2.8186664, "lng": -60.6746564}, "southwest": {"lat": 2.8034467, "lng": -60.6881371}}, "location": {"lat": 2.8111863, "lng": -60.6813551}, "location_type": "GEOMETRIC_CENTER", "viewport": {"northeast": {"lat": 2.8186664, "lng": -60.6746564}, "southwest": {"lat": 2.8034467, "lng": -60.6881371}}}, "place_id": "EjRBdi4gVmlsbGUgUm95IC0gU8OjbyBWaWNlbnRlLCBCb2EgVmlzdGEgLSBSUiwgQnJhc2lsIkgqRgoUChIJd7dM_hoGk40RCwMMMA9joOISFAoSCZdlEnfTBZONEVArpH29yc6SGhgKCg2jxasBFaW509sSCg0oGK4BFTzI1ds", "types": ["route"]}], [{"address_components": [{"long_name": "Rua Deusdete Coelho", "short_name": "R. Deusdete Coelho", "types": ["route"]}, {"long_name": "Boa Vista", "short_name": "Boa Vista", "types": ["administrative_area_level_2", "political"]}, {"long_name": "Roraima", "short_name": "RR", "types": ["administrative_area_level_1", "political"]}, {"long_name": "Brazil", "short_name": "BR", "types": ["country", "political"]}], "formatted_address": "R. Deusdete Coelho, Boa Vista - RR, Brazil", "geometry": {"bounds": {"northeast": {"lat": 2.8678096, "lng": -60.6459285}, "southwest": {"lat": 2.8448803, "lng": -60.6720614}}, "location": {"lat": 2.856133, "lng": -60.6595248}, "location_type": "GEOMETRIC_CENTER", "viewport": {"northeast": {"lat": 2.8678096, "lng": -60.6459285}, "southwest": {"lat": 2.8448803, "lng": -60.6720614}}}, "place_id": "ChIJbypf47gIk40Ra5KyvRBgg1k", "types": ["route"]}], [{"address_components": [{"long_name": "State of Roraima", "short_name": "RR", "types": ["administrative_area_level_1", "political"]}, {"long_name": "Brazil", "short_name": "BR", "types": ["country", "political"]}], "formatted_address": "State of Roraima, Brazil", "geometry": {"bounds": {"northeast": {"lat": 5.2718389, "lng": -58.88687820000001}, "southwest": {"lat": -1.5806358, "lng": -64.8252444}}, "location": {"lat": 2.7375971, "lng": -62.0750998}, "location_type": "APPROXIMATE", "viewport": {"northeast": {"lat": 5.2718389, "lng": -58.88687820000001}, "southwest": {"lat": -1.5806358, "lng": -64.8252444}}}, "partial_match": true, "place_id": "ChIJW_TM33EGk40RFHqcnvIAX2k", "types": ["administrative_area_level_1", "political"]}], [{"address_components": [{"long_name": "BR-174", "short_name": "BR-174", "types": ["route"]}, {"long_name": "Roraima", "short_name": "RR", "types": ["administrative_area_level_1", "political"]}, {"long_name": "Brazil", "short_name": "BR", "types": ["country", "political"]}], "formatted_address": "BR-174, Roraima, Brazil", "geometry": {"bounds": {"northeast": {"lat": 4.482641699999999, "lng": -60.215609}, "southwest": {"lat": -1.5811212, "lng": -61.1641169}}, "location": {"lat": 1.4284064, "lng": -60.69858199999999}, "location_type": "GEOMETRIC_CENTER", "viewport": {"northeast": {"lat": 4.482641699999999, "lng": -60.215609}, "southwest": {"lat": -1.5811212, "lng": -61.1641169}}}, "place_id": "EhdCUi0xNzQsIFJvcmFpbWEsIEJyYXNpbCJIKkYKFAoSCfEjBycCapqTEXWuIlJ2rblbEhQKEglb9MzfcQaTjREUepye8gBfaRoYCgoNdL0O_xWvGIvbEgoNMf-rAhXG0xvc", "types": ["route"]}], [{"address_components": [{"long_name": "2651", "short_name": "2651", "types": ["street_number"]}, {"long_name": "Rua Estrela D'\u00e1lva", "short_name": "R. Estrela D'\u00e1lva", "types": ["route"]}, {"long_name": "Oper\u00e1rio", "short_name": "Oper\u00e1rio", "types": ["political", "sublocality", "sublocality_level_1"]}, {"long_name": "Boa Vista", "short_name": "Boa Vista", "types": ["administrative_area_level_2", "political"]}, {"long_name": "Roraima", "short_name": "RR", "types": ["administrative_area_level_1", "political"]}, {"long_name": "Brazil", "short_name": "BR", "types": ["country", "political"]}, {"long_name": "69316-057", "short_name": "69316-057", "types": ["postal_code"]}], "formatted_address": "R. Estrela D'\u00e1lva, 2651 - Oper\u00e1rio, Boa Vista - RR, 69316-057, Brazil", "geometry": {"location": {"lat": 2.787126, "lng": -60.732991}, "location_type": "ROOFTOP", "viewport": {"northeast": {"lat": 2.788474980291502, "lng": -60.73164201970849}, "southwest": {"lat": 2.785777019708498, "lng": -60.7343399802915}}}, "place_id": "ChIJyxxu9Y0Ek40ROGIi443f5Lg", "plus_code": {"compound_code": "Q7P8+VR Boa Vista, State of Roraima, Brazil", "global_code": "67JXQ7P8+VR"}, "types": ["street_address"]}], [{"address_components": [{"long_name": "540", "short_name": "540", "types": ["street_number"]}, {"long_name": "Rua \u00c9dson Castro", "short_name": "R. \u00c9dson Castro", "types": ["route"]}, {"long_name": "Liberdade", "short_name": "Liberdade", "types": ["political", "sublocality", "sublocality_level_1"]}, {"long_name": "Boa Vista", "short_name": "Boa Vista", "types": ["administrative_area_level_2", "political"]}, {"long_name": "Roraima", "short_name": "RR", "types": ["administrative_area_level_1", "political"]}, {"long_name": "Brazil", "short_name": "BR", "types": ["country", "political"]}, {"long_name": "69309-014", "short_name": "69309-014", "types": ["postal_code"]}], "formatted_address": "R. \u00c9dson Castro, 540 - Liberdade, Boa Vista - RR, 69309-014, Brazil", "geometry": {"location": {"lat": 2.81994, "lng": -60.697354}, "location_type": "ROOFTOP", "viewport": {"northeast": {"lat": 2.821288980291502, "lng": -60.69600501970849}, "southwest": {"lat": 2.818591019708498, "lng": -60.6987029802915}}}, "place_id": "ChIJIXVxTscFk40RZnm3AY04DaU", "plus_code": {"compound_code": "R893+X3 Boa Vista, State of Roraima, Brazil", "global_code": "67JXR893+X3"}, "types": ["street_address"]}], [{"address_components": [{"long_name": "901", "short_name": "901", "types": ["street_number"]}, {"long_name": "Rua Estrela D'\u00e1lva", "short_name": "R. Estrela D'\u00e1lva", "types": ["route"]}, {"long_name": "Raiar do Sol", "short_name": "Raiar do Sol", "types": ["political", "sublocality", "sublocality_level_1"]}, {"long_name": "Boa Vista", "short_name": "Boa Vista", "types": ["administrative_area_level_2", "political"]}, {"long_name": "Roraima", "short_name": "RR", "types": ["administrative_area_level_1", "political"]}, {"long_name": "Brazil", "short_name": "BR", "types": ["country", "political"]}, {"long_name": "69316-002", "short_name": "69316-002", "types": ["postal_code"]}], "formatted_address": "R. Estrela D'\u00e1lva, 901 - Raiar do Sol, Boa Vista - RR, 69316-002, Brazil", "geometry": {"location": {"lat": 2.7778703, "lng": -60.720524}, "location_type": "RANGE_INTERPOLATED", "viewport": {"northeast": {"lat": 2.779219280291502, "lng": -60.71917501970849}, "southwest": {"lat": 2.776521319708498, "lng": -60.72187298029151}}}, "place_id": "EklSLiBFc3RyZWxhIEQnw6FsdmEsIDkwMSAtIFJhaWFyIGRvIFNvbCwgQm9hIFZpc3RhIC0gUlIsIDY5MzE2LTAwMiwgQnJhc2lsIhsSGQoUChIJa3F03oAEk40RywzgcFhc8C4QhQc", "types": ["street_address"]}], [{"address_components": [{"long_name": "237", "short_name": "237", "types": ["street_number"]}, {"long_name": "Rua Maria Rodrigues dos Santos", "short_name": "R. Maria Rodrigues dos Santos", "types": ["route"]}, {"long_name": "Asa Branca", "short_name": "Asa Branca", "types": ["political", "sublocality", "sublocality_level_1"]}, {"long_name": "Boa Vista", "short_name": "Boa Vista", "types": ["administrative_area_level_2", "political"]}, {"long_name": "Roraima", "short_name": "RR", "types": ["administrative_area_level_1", "political"]}, {"long_name": "Brazil", "short_name": "BR", "types": ["country", "political"]}, {"long_name": "69312-285", "short_name": "69312-285", "types": ["postal_code"]}], "formatted_address": "R. Maria Rodrigues dos Santos, 237 - Asa Branca, Boa Vista - RR, 69312-285, Brazil", "geometry": {"location": {"lat": 2.8104969, "lng": -60.723298}, "location_type": "ROOFTOP", "viewport": {"northeast": {"lat": 2.811845880291502, "lng": -60.7219490197085}, "southwest": {"lat": 2.809147919708498, "lng": -60.72464698029151}}}, "place_id": "ChIJjeDv8QAFk40Rjz1whTRLjBQ", "plus_code": {"compound_code": "R76G+5M Boa Vista, State of Roraima, Brazil", "global_code": "67JXR76G+5M"}, "types": ["street_address"]}], [{"address_components": [{"long_name": "Rua Tucunar\u00e9", "short_name": "R. Tucunar\u00e9", "types": ["route"]}, {"long_name": "Santa Tereza", "short_name": "Santa Tereza", "types": ["political", "sublocality", "sublocality_level_1"]}, {"long_name": "Boa Vista", "short_name": "Boa Vista", "types": ["administrative_area_level_2", "political"]}, {"long_name": "Roraima", "short_name": "RR", "types": ["administrative_area_level_1", "political"]}, {"long_name": "Brazil", "short_name": "BR", "types": ["country", "political"]}, {"long_name": "69314-094", "short_name": "69314-094", "types": ["postal_code"]}], "formatted_address": "R. Tucunar\u00e9 - Santa Tereza, Boa Vista - RR, 69314-094, Brazil", "geometry": {"bounds": {"northeast": {"lat": 2.8355439, "lng": -60.72869859999999}, "southwest": {"lat": 2.8277259, "lng": -60.7308774}}, "location": {"lat": 2.8317738, "lng": -60.72999850000001}, "location_type": "GEOMETRIC_CENTER", "viewport": {"northeast": {"lat": 2.8355439, "lng": -60.72843901970848}, "southwest": {"lat": 2.8277259, "lng": -60.7311369802915}}}, "place_id": "ChIJoZ8l1XAFk40R3T2bCa_QECk", "types": ["route"]}], [{"address_components": [{"long_name": "465", "short_name": "465", "types": ["street_number"]}, {"long_name": "Rua Coronel Pinto", "short_name": "R. Cel. Pinto", "types": ["route"]}, {"long_name": "S\u00e3o Vicente", "short_name": "S\u00e3o Vicente", "types": ["political", "sublocality", "sublocality_level_1"]}, {"long_name": "Boa Vista", "short_name": "Boa Vista", "types": ["administrative_area_level_2", "political"]}, {"long_name": "Roraima", "short_name": "RR", "types": ["administrative_area_level_1", "political"]}, {"long_name": "Brazil", "short_name": "BR", "types": ["country", "political"]}, {"long_name": "69301-150", "short_name": "69301-150", "types": ["postal_code"]}], "formatted_address": "R. Cel. Pinto, 465 - S\u00e3o Vicente, Boa Vista - RR, 69301-150, Brazil", "geometry": {"location": {"lat": 2.8220389, "lng": -60.670755}, "location_type": "ROOFTOP", "viewport": {"northeast": {"lat": 2.823387880291502, "lng": -60.6694060197085}, "southwest": {"lat": 2.820689919708498, "lng": -60.6721039802915}}}, "place_id": "ChIJk9By83QGk40R9enoJzSRhAk", "plus_code": {"compound_code": "R8CH+RM Boa Vista, State of Roraima, Brazil", "global_code": "67JXR8CH+RM"}, "types": ["establishment", "point_of_interest"]}], [{"address_components": [{"long_name": "215", "short_name": "215", "types": ["street_number"]}, {"long_name": "Rua Vinte e Um de Janeiro", "short_name": "R. Vinte e Um de Janeiro", "types": ["route"]}, {"long_name": "Caracara\u00ed", "short_name": "Caracara\u00ed", "types": ["administrative_area_level_2", "political"]}, {"long_name": "Roraima", "short_name": "RR", "types": ["administrative_area_level_1", "political"]}, {"long_name": "Brazil", "short_name": "BR", "types": ["country", "political"]}, {"long_name": "69360-000", "short_name": "69360-000", "types": ["postal_code"]}], "formatted_address": "R. Vinte e Um de Janeiro, 215, Caracara\u00ed - RR, 69360-000, Brazil", "geometry": {"location": {"lat": 1.8170035, "lng": -61.13245359999999}, "location_type": "RANGE_INTERPOLATED", "viewport": {"northeast": {"lat": 1.818352480291502, "lng": -61.13110461970849}, "southwest": {"lat": 1.815654519708498, "lng": -61.1338025802915}}}, "place_id": "EkFSLiBWaW50ZSBlIFVtIGRlIEphbmVpcm8sIDIxNSwgQ2FyYWNhcmHDrSAtIFJSLCA2OTM2MC0wMDAsIEJyYXNpbCIbEhkKFAoSCbnBvgL7OY2NEdNbpgqJBBu3ENcB", "types": ["street_address"]}], [{"address_components": [{"long_name": "Avenida Get\u00falio Vargas", "short_name": "Av. Get\u00falio Vargas", "types": ["route"]}, {"long_name": "Boa Vista", "short_name": "Boa Vista", "types": ["administrative_area_level_2", "political"]}, {"long_name": "Roraima", "short_name": "RR", "types": ["administrative_area_level_1", "political"]}, {"long_name": "Brazil", "short_name": "BR", "types": ["country", "political"]}], "formatted_address": "Av. Get\u00falio Vargas, Boa Vista - RR, Brazil", "geometry": {"bounds": {"northeast": {"lat": 2.8591101, "lng": -60.6343154}, "southwest": {"lat": 2.8022422, "lng": -60.68658169999999}}, "location": {"lat": 2.8312744, "lng": -60.6590065}, "location_type": "GEOMETRIC_CENTER", "viewport": {"northeast": {"lat": 2.8591101, "lng": -60.6343154}, "southwest": {"lat": 2.8022422, "lng": -60.68658169999999}}}, "partial_match": true, "place_id": "ChIJ51SRBBEGk40RjDqLlCxhrEE", "types": ["route"]}], [{"address_components": [{"long_name": "State of Roraima", "short_name": "RR", "types": ["administrative_area_level_1", "political"]}, {"long_name": "Brazil", "short_name": "BR", "types": ["country", "political"]}], "formatted_address": "State of Roraima, Brazil", "geometry": {"bounds": {"northeast": {"lat": 5.2718389, "lng": -58.88687820000001}, "southwest": {"lat": -1.5806358, "lng": -64.8252444}}, "location": {"lat": 2.7375971, "lng": -62.0750998}, "location_type": "APPROXIMATE", "viewport": {"northeast": {"lat": 5.2718389, "lng": -58.88687820000001}, "southwest": {"lat": -1.5806358, "lng": -64.8252444}}}, "partial_match": true, "place_id": "ChIJW_TM33EGk40RFHqcnvIAX2k", "types": ["administrative_area_level_1", "political"]}], [{"address_components": [{"long_name": "Rua Ant\u00f4nio Bitencourt", "short_name": "R. Ant\u00f4nio Bitencourt", "types": ["route"]}, {"long_name": "Centro", "short_name": "Centro", "types": ["political", "sublocality", "sublocality_level_1"]}, {"long_name": "Boa Vista", "short_name": "Boa Vista", "types": ["administrative_area_level_2", "political"]}, {"long_name": "Roraima", "short_name": "RR", "types": ["administrative_area_level_1", "political"]}, {"long_name": "Brazil", "short_name": "BR", "types": ["country", "political"]}, {"long_name": "69301-011", "short_name": "69301-011", "types": ["postal_code"]}], "formatted_address": "R. Ant\u00f4nio Bitencourt - Centro, Boa Vista - RR, 69301-011, Brazil", "geometry": {"bounds": {"northeast": {"lat": 2.8184401, "lng": -60.6708817}, "southwest": {"lat": 2.8175561, "lng": -60.6718799}}, "location": {"lat": 2.8179914, "lng": -60.67137760000001}, "location_type": "GEOMETRIC_CENTER", "viewport": {"northeast": {"lat": 2.819347080291501, "lng": -60.67003181970849}, "southwest": {"lat": 2.816649119708498, "lng": -60.6727297802915}}}, "place_id": "ChIJ9zLl8XYGk40RPyiZmlzAfFk", "types": ["route"]}], [{"address_components": [{"long_name": "Rua Capit\u00e3o Francisco Ferreira", "short_name": "R. Cap. Francisco Ferreira", "types": ["route"]}, {"long_name": "Mecejana", "short_name": "Mecejana", "types": ["political", "sublocality", "sublocality_level_1"]}, {"long_name": "Boa Vista", "short_name": "Boa Vista", "types": ["administrative_area_level_2", "political"]}, {"long_name": "Roraima", "short_name": "RR", "types": ["administrative_area_level_1", "political"]}, {"long_name": "Brazil", "short_name": "BR", "types": ["country", "political"]}, {"long_name": "69304-360", "short_name": "69304-360", "types": ["postal_code"]}], "formatted_address": "R. Cap. Francisco Ferreira - Mecejana, Boa Vista - RR, 69304-360, Brazil", "geometry": {"bounds": {"northeast": {"lat": 2.8189496, "lng": -60.68004740000001}, "southwest": {"lat": 2.8184414, "lng": -60.68372289999999}}, "location": {"lat": 2.8186773, "lng": -60.68194649999999}, "location_type": "GEOMETRIC_CENTER", "viewport": {"northeast": {"lat": 2.820044480291501, "lng": -60.68004740000001}, "southwest": {"lat": 2.817346519708498, "lng": -60.68372289999999}}}, "place_id": "ChIJqRQiwNsFk40RawIoEB3K2n8", "types": ["route"]}], [{"address_components": [{"long_name": "Rua Capit\u00e3o Castro Mendes", "short_name": "R. Cap. Castro Mendes", "types": ["route"]}, {"long_name": "Boa Vista", "short_name": "Boa Vista", "types": ["administrative_area_level_2", "political"]}, {"long_name": "Roraima", "short_name": "RR", "types": ["administrative_area_level_1", "political"]}, {"long_name": "Brazil", "short_name": "BR", "types": ["country", "political"]}, {"long_name": "69307", "short_name": "69307", "types": ["postal_code", "postal_code_prefix"]}], "formatted_address": "R. Cap. Castro Mendes, Boa Vista - RR, Brazil", "geometry": {"bounds": {"northeast": {"lat": 2.8596796, "lng": -60.6459285}, "southwest": {"lat": 2.8504865, "lng": -60.6560907}}, "location": {"lat": 2.8547729, "lng": -60.65099619999999}, "location_type": "GEOMETRIC_CENTER", "viewport": {"northeast": {"lat": 2.8596796, "lng": -60.6459285}, "southwest": {"lat": 2.8504865, "lng": -60.6560907}}}, "place_id": "ChIJRxJv85UIk40R4QvaWuGxrPs", "types": ["route"]}], [{"address_components": [{"long_name": "827", "short_name": "827", "types": ["street_number"]}, {"long_name": "Rua Capit\u00e3o Castro Mendes", "short_name": "R. Cap. Castro Mendes", "types": ["route"]}, {"long_name": "Ca\u00e7ari", "short_name": "Ca\u00e7ari", "types": ["political", "sublocality", "sublocality_level_1"]}, {"long_name": "Boa Vista", "short_name": "Boa Vista", "types": ["administrative_area_level_2", "political"]}, {"long_name": "Roraima", "short_name": "RR", "types": ["administrative_area_level_1", "political"]}, {"long_name": "Brazil", "short_name": "BR", "types": ["country", "political"]}, {"long_name": "69307-420", "short_name": "69307-420", "types": ["postal_code"]}], "formatted_address": "R. Cap. Castro Mendes, 827 - Ca\u00e7ari, Boa Vista - RR, 69307-420, Brazil", "geometry": {"location": {"lat": 2.854476, "lng": -60.6508221}, "location_type": "RANGE_INTERPOLATED", "viewport": {"northeast": {"lat": 2.855824980291502, "lng": -60.64947311970849}, "southwest": {"lat": 2.853127019708498, "lng": -60.6521710802915}}}, "place_id": "EkdSLiBDYXAuIENhc3RybyBNZW5kZXMsIDgyNyAtIENhw6dhcmksIEJvYSBWaXN0YSAtIFJSLCA2OTMwNy00MjAsIEJyYXNpbCIbEhkKFAoSCYnjjO-VCJONEQGdzVtFrR7qELsG", "types": ["street_address"]}], [{"address_components": [{"long_name": "Avenida Presidente Castelo Branco", "short_name": "Av. Pres. Castelo Branco", "types": ["route"]}, {"long_name": "Boa Vista", "short_name": "Boa Vista", "types": ["administrative_area_level_2", "political"]}, {"long_name": "Roraima", "short_name": "RR", "types": ["administrative_area_level_1", "political"]}, {"long_name": "Brazil", "short_name": "BR", "types": ["country", "political"]}], "formatted_address": "Av. Pres. Castelo Branco, Boa Vista - RR, Brazil", "geometry": {"bounds": {"northeast": {"lat": 2.8168668, "lng": -60.6713354}, "southwest": {"lat": 2.8063672, "lng": -60.68512959999999}}, "location": {"lat": 2.8104563, "lng": -60.67959330000001}, "location_type": "GEOMETRIC_CENTER", "viewport": {"northeast": {"lat": 2.8168668, "lng": -60.6713354}, "southwest": {"lat": 2.8063672, "lng": -60.68512959999999}}}, "place_id": "ChIJ7-pmYdYFk40RnGuKcy1WLvE", "types": ["route"]}], [{"address_components": [{"long_name": "Rua Cec\u00edlia Brasil", "short_name": "R. Cec\u00edlia Brasil", "types": ["route"]}, {"long_name": "Boa Vista", "short_name": "Boa Vista", "types": ["administrative_area_level_2", "political"]}, {"long_name": "Roraima", "short_name": "RR", "types": ["administrative_area_level_1", "political"]}, {"long_name": "Brazil", "short_name": "BR", "types": ["country", "political"]}, {"long_name": "69301-080", "short_name": "69301-080", "types": ["postal_code"]}], "formatted_address": "R. Cec\u00edlia Brasil, Boa Vista - RR, 69301-080, Brazil", "geometry": {"bounds": {"northeast": {"lat": 2.8234993, "lng": -60.6691575}, "southwest": {"lat": 2.8123357, "lng": -60.67786929999999}}, "location": {"lat": 2.8170264, "lng": -60.6739837}, "location_type": "GEOMETRIC_CENTER", "viewport": {"northeast": {"lat": 2.8234993, "lng": -60.6691575}, "southwest": {"lat": 2.8123357, "lng": -60.67786929999999}}}, "place_id": "ChIJi_4zRHYGk40RLf_LoLk-A1o", "types": ["route"]}], [{"address_components": [{"long_name": "Rua Chagas Peixoto", "short_name": "R. Chagas Peixoto", "types": ["route"]}, {"long_name": "Normandia", "short_name": "Normandia", "types": ["administrative_area_level_2", "political"]}, {"long_name": "Roraima", "short_name": "RR", "types": ["administrative_area_level_1", "political"]}, {"long_name": "Brazil", "short_name": "BR", "types": ["country", "political"]}, {"long_name": "69355-000", "short_name": "69355-000", "types": ["postal_code"]}], "formatted_address": "R. Chagas Peixoto, Normandia - RR, 69355-000, Brazil", "geometry": {"bounds": {"northeast": {"lat": 3.8894035, "lng": -59.6261849}, "southwest": {"lat": 3.874935, "lng": -59.63194900000001}}, "location": {"lat": 3.8821939, "lng": -59.62890169999999}, "location_type": "GEOMETRIC_CENTER", "viewport": {"northeast": {"lat": 3.8894035, "lng": -59.6261849}, "southwest": {"lat": 3.874935, "lng": -59.63194900000001}}}, "place_id": "ChIJXx6SP5Rklo0Rx9QFmd-V2Bc", "types": ["route"]}], [{"address_components": [{"long_name": "32", "short_name": "32", "types": ["street_number"]}, {"long_name": "Rua Abdala Habib Fraxe", "short_name": "Rua Abdala Habib Fraxe", "types": ["route"]}, {"long_name": "J\u00f3quei Clube", "short_name": "J\u00f3quei Clube", "types": ["political", "sublocality", "sublocality_level_1"]}, {"long_name": "Boa Vista", "short_name": "Boa Vista", "types": ["administrative_area_level_2", "political"]}, {"long_name": "Roraima", "short_name": "RR", "types": ["administrative_area_level_1", "political"]}, {"long_name": "Brazil", "short_name": "BR", "types": ["country", "political"]}, {"long_name": "69312-377", "short_name": "69312-377", "types": ["postal_code"]}], "formatted_address": "Rua Abdala Habib Fraxe, 32 - J\u00f3quei Clube, Boa Vista - RR, 69312-377, Brazil", "geometry": {"location": {"lat": 2.8027462, "lng": -60.7173068}, "location_type": "RANGE_INTERPOLATED", "viewport": {"northeast": {"lat": 2.804095180291502, "lng": -60.71595781970849}, "southwest": {"lat": 2.801397219708498, "lng": -60.7186557802915}}}, "place_id": "Ek1SdWEgQWJkYWxhIEhhYmliIEZyYXhlLCAzMiAtIErDs3F1ZWkgQ2x1YmUsIEJvYSBWaXN0YSAtIFJSLCA2OTMxMi0zNzcsIEJyYXNpbCIaEhgKFAoSCXlzsJBWBJONEVK2IOvo0lxmECA", "types": ["street_address"]}], [{"address_components": [{"long_name": "1485", "short_name": "1485", "types": ["street_number"]}, {"long_name": "Rua Claudionor Freire", "short_name": "R. Claudionor Freire", "types": ["route"]}, {"long_name": "Paraviana", "short_name": "Paraviana", "types": ["political", "sublocality", "sublocality_level_1"]}, {"long_name": "Boa Vista", "short_name": "Boa Vista", "types": ["administrative_area_level_2", "political"]}, {"long_name": "Roraima", "short_name": "RR", "types": ["administrative_area_level_1", "political"]}, {"long_name": "Brazil", "short_name": "BR", "types": ["country", "political"]}, {"long_name": "69307-230", "short_name": "69307-230", "types": ["postal_code"]}], "formatted_address": "R. Claudionor Freire, 1485 - Paraviana, Boa Vista - RR, 69307-230, Brazil", "geometry": {"location": {"lat": 2.8544, "lng": -60.663815}, "location_type": "ROOFTOP", "viewport": {"northeast": {"lat": 2.855748980291502, "lng": -60.6624660197085}, "southwest": {"lat": 2.853051019708498, "lng": -60.66516398029151}}}, "place_id": "ChIJU6vLrLAIk40Rx4_epQyNNp8", "plus_code": {"compound_code": "V83P+QF Boa Vista, State of Roraima, Brazil", "global_code": "67JXV83P+QF"}, "types": ["street_address"]}], [{"address_components": [{"long_name": "559", "short_name": "559", "types": ["street_number"]}, {"long_name": "Rua Coronel Ricardo Franco", "short_name": "R. Cel. Ricardo Franco", "types": ["route"]}, {"long_name": "Aparecida", "short_name": "Aparecida", "types": ["political", "sublocality", "sublocality_level_1"]}, {"long_name": "Boa Vista", "short_name": "Boa Vista", "types": ["administrative_area_level_2", "political"]}, {"long_name": "Roraima", "short_name": "RR", "types": ["administrative_area_level_1", "political"]}, {"long_name": "Brazil", "short_name": "BR", "types": ["country", "political"]}, {"long_name": "69306-370", "short_name": "69306-370", "types": ["postal_code"]}], "formatted_address": "R. Cel. Ricardo Franco, 559 - Aparecida, Boa Vista - RR, 69306-370, Brazil", "geometry": {"location": {"lat": 2.8395573, "lng": -60.6631945}, "location_type": "RANGE_INTERPOLATED", "viewport": {"northeast": {"lat": 2.840906280291502, "lng": -60.6618455197085}, "southwest": {"lat": 2.838208319708498, "lng": -60.66454348029151}}}, "place_id": "EkpSLiBDZWwuIFJpY2FyZG8gRnJhbmNvLCA1NTkgLSBBcGFyZWNpZGEsIEJvYSBWaXN0YSAtIFJSLCA2OTMwNi0zNzAsIEJyYXNpbCIbEhkKFAoSCVFI2dICBpONEQMbUR3wZb_tEK8E", "types": ["street_address"]}], [{"address_components": [{"long_name": "559", "short_name": "559", "types": ["street_number"]}, {"long_name": "Rua Coronel Ricardo Franco", "short_name": "R. Cel. Ricardo Franco", "types": ["route"]}, {"long_name": "Aparecida", "short_name": "Aparecida", "types": ["political", "sublocality", "sublocality_level_1"]}, {"long_name": "Boa Vista", "short_name": "Boa Vista", "types": ["administrative_area_level_2", "political"]}, {"long_name": "Roraima", "short_name": "RR", "types": ["administrative_area_level_1", "political"]}, {"long_name": "Brazil", "short_name": "BR", "types": ["country", "political"]}, {"long_name": "69306-370", "short_name": "69306-370", "types": ["postal_code"]}], "formatted_address": "R. Cel. Ricardo Franco, 559 - Aparecida, Boa Vista - RR, 69306-370, Brazil", "geometry": {"location": {"lat": 2.8395573, "lng": -60.6631945}, "location_type": "RANGE_INTERPOLATED", "viewport": {"northeast": {"lat": 2.840906280291502, "lng": -60.6618455197085}, "southwest": {"lat": 2.838208319708498, "lng": -60.66454348029151}}}, "place_id": "EkpSLiBDZWwuIFJpY2FyZG8gRnJhbmNvLCA1NTkgLSBBcGFyZWNpZGEsIEJvYSBWaXN0YSAtIFJSLCA2OTMwNi0zNzAsIEJyYXNpbCIbEhkKFAoSCVFI2dICBpONEQMbUR3wZb_tEK8E", "types": ["street_address"]}], [{"address_components": [{"long_name": "559", "short_name": "559", "types": ["street_number"]}, {"long_name": "Rua Coronel Ricardo Franco", "short_name": "R. Cel. Ricardo Franco", "types": ["route"]}, {"long_name": "Aparecida", "short_name": "Aparecida", "types": ["political", "sublocality", "sublocality_level_1"]}, {"long_name": "Boa Vista", "short_name": "Boa Vista", "types": ["administrative_area_level_2", "political"]}, {"long_name": "Roraima", "short_name": "RR", "types": ["administrative_area_level_1", "political"]}, {"long_name": "Brazil", "short_name": "BR", "types": ["country", "political"]}, {"long_name": "69306-370", "short_name": "69306-370", "types": ["postal_code"]}], "formatted_address": "R. Cel. Ricardo Franco, 559 - Aparecida, Boa Vista - RR, 69306-370, Brazil", "geometry": {"location": {"lat": 2.8395573, "lng": -60.6631945}, "location_type": "RANGE_INTERPOLATED", "viewport": {"northeast": {"lat": 2.840906280291502, "lng": -60.6618455197085}, "southwest": {"lat": 2.838208319708498, "lng": -60.66454348029151}}}, "place_id": "EkpSLiBDZWwuIFJpY2FyZG8gRnJhbmNvLCA1NTkgLSBBcGFyZWNpZGEsIEJvYSBWaXN0YSAtIFJSLCA2OTMwNi0zNzAsIEJyYXNpbCIbEhkKFAoSCVFI2dICBpONEQMbUR3wZb_tEK8E", "types": ["street_address"]}], [{"address_components": [{"long_name": "559", "short_name": "559", "types": ["street_number"]}, {"long_name": "Rua Coronel Ricardo Franco", "short_name": "R. Cel. Ricardo Franco", "types": ["route"]}, {"long_name": "Aparecida", "short_name": "Aparecida", "types": ["political", "sublocality", "sublocality_level_1"]}, {"long_name": "Boa Vista", "short_name": "Boa Vista", "types": ["administrative_area_level_2", "political"]}, {"long_name": "Roraima", "short_name": "RR", "types": ["administrative_area_level_1", "political"]}, {"long_name": "Brazil", "short_name": "BR", "types": ["country", "political"]}, {"long_name": "69306-370", "short_name": "69306-370", "types": ["postal_code"]}], "formatted_address": "R. Cel. Ricardo Franco, 559 - Aparecida, Boa Vista - RR, 69306-370, Brazil", "geometry": {"location": {"lat": 2.8395573, "lng": -60.6631945}, "location_type": "RANGE_INTERPOLATED", "viewport": {"northeast": {"lat": 2.840906280291502, "lng": -60.6618455197085}, "southwest": {"lat": 2.838208319708498, "lng": -60.66454348029151}}}, "place_id": "EkpSLiBDZWwuIFJpY2FyZG8gRnJhbmNvLCA1NTkgLSBBcGFyZWNpZGEsIEJvYSBWaXN0YSAtIFJSLCA2OTMwNi0zNzAsIEJyYXNpbCIbEhkKFAoSCVFI2dICBpONEQMbUR3wZb_tEK8E", "types": ["street_address"]}], [{"address_components": [{"long_name": "213", "short_name": "213", "types": ["street_number"]}, {"long_name": "Rua das Damas da Noite", "short_name": "R. das Damas da Noite", "types": ["route"]}, {"long_name": "Pricum\u00e3", "short_name": "Pricum\u00e3", "types": ["political", "sublocality", "sublocality_level_1"]}, {"long_name": "Boa Vista", "short_name": "Boa Vista", "types": ["administrative_area_level_2", "political"]}, {"long_name": "Roraima", "short_name": "RR", "types": ["administrative_area_level_1", "political"]}, {"long_name": "Brazil", "short_name": "BR", "types": ["country", "political"]}, {"long_name": "69309-440", "short_name": "69309-440", "types": ["postal_code"]}], "formatted_address": "R. das Damas da Noite, 213 - Pricum\u00e3, Boa Vista - RR, 69309-440, Brazil", "geometry": {"location": {"lat": 2.807631, "lng": -60.69215699999999}, "location_type": "ROOFTOP", "viewport": {"northeast": {"lat": 2.808979980291502, "lng": -60.69080801970849}, "southwest": {"lat": 2.806282019708498, "lng": -60.6935059802915}}}, "place_id": "ChIJ46L3pswFk40R-INHbwdZITg", "plus_code": {"compound_code": "R855+34 Boa Vista, State of Roraima, Brazil", "global_code": "67JXR855+34"}, "types": ["street_address"]}], [{"address_components": [{"long_name": "213", "short_name": "213", "types": ["street_number"]}, {"long_name": "Rua das Damas da Noite", "short_name": "R. das Damas da Noite", "types": ["route"]}, {"long_name": "Pricum\u00e3", "short_name": "Pricum\u00e3", "types": ["political", "sublocality", "sublocality_level_1"]}, {"long_name": "Boa Vista", "short_name": "Boa Vista", "types": ["administrative_area_level_2", "political"]}, {"long_name": "Roraima", "short_name": "RR", "types": ["administrative_area_level_1", "political"]}, {"long_name": "Brazil", "short_name": "BR", "types": ["country", "political"]}, {"long_name": "69309-440", "short_name": "69309-440", "types": ["postal_code"]}], "formatted_address": "R. das Damas da Noite, 213 - Pricum\u00e3, Boa Vista - RR, 69309-440, Brazil", "geometry": {"location": {"lat": 2.807631, "lng": -60.69215699999999}, "location_type": "ROOFTOP", "viewport": {"northeast": {"lat": 2.808979980291502, "lng": -60.69080801970849}, "southwest": {"lat": 2.806282019708498, "lng": -60.6935059802915}}}, "place_id": "ChIJ46L3pswFk40R-INHbwdZITg", "plus_code": {"compound_code": "R855+34 Boa Vista, State of Roraima, Brazil", "global_code": "67JXR855+34"}, "types": ["street_address"]}], [{"address_components": [{"long_name": "3117", "short_name": "3117", "types": ["street_number"]}, {"long_name": "Rua Deusdete Coelho", "short_name": "R. Deusdete Coelho", "types": ["route"]}, {"long_name": "Paraviana", "short_name": "Paraviana", "types": ["political", "sublocality", "sublocality_level_1"]}, {"long_name": "Boa Vista", "short_name": "Boa Vista", "types": ["administrative_area_level_2", "political"]}, {"long_name": "Roraima", "short_name": "RR", "types": ["administrative_area_level_1", "political"]}, {"long_name": "Brazil", "short_name": "BR", "types": ["country", "political"]}, {"long_name": "69307-273", "short_name": "69307-273", "types": ["postal_code"]}], "formatted_address": "R. Deusdete Coelho, 3117 - Paraviana, Boa Vista - RR, 69307-273, Brazil", "geometry": {"location": {"lat": 2.863536, "lng": -60.66802200000001}, "location_type": "ROOFTOP", "viewport": {"northeast": {"lat": 2.864884980291502, "lng": -60.6666730197085}, "southwest": {"lat": 2.862187019708498, "lng": -60.66937098029151}}}, "place_id": "ChIJ29YRtM4Ik40RMf1BQPzQVpg", "plus_code": {"compound_code": "V87J+CQ Boa Vista, State of Roraima, Brazil", "global_code": "67JXV87J+CQ"}, "types": ["street_address"]}], [{"address_components": [{"long_name": "Rua Dico Vi\u00eaira", "short_name": "R. Dico Vi\u00eaira", "types": ["route"]}, {"long_name": "Caimb\u00e9", "short_name": "Caimb\u00e9", "types": ["political", "sublocality", "sublocality_level_1"]}, {"long_name": "Boa Vista", "short_name": "Boa Vista", "types": ["administrative_area_level_2", "political"]}, {"long_name": "Roraima", "short_name": "RR", "types": ["administrative_area_level_1", "political"]}, {"long_name": "Brazil", "short_name": "BR", "types": ["country", "political"]}], "formatted_address": "R. Dico Vi\u00eaira - Caimb\u00e9, Boa Vista - RR, Brazil", "geometry": {"bounds": {"northeast": {"lat": 2.8328503, "lng": -60.7156265}, "southwest": {"lat": 2.8180412, "lng": -60.7185313}}, "location": {"lat": 2.8253186, "lng": -60.7169584}, "location_type": "GEOMETRIC_CENTER", "viewport": {"northeast": {"lat": 2.8328503, "lng": -60.7156265}, "southwest": {"lat": 2.8180412, "lng": -60.7185313}}}, "partial_match": true, "place_id": "ChIJDQ7yJ6IFk40R3S_NS0cMDbg", "types": ["route"]}, {"address_components": [{"long_name": "Rua Don\u00e1 Rute Pinheiro", "short_name": "R. Don\u00e1 Rute Pinheiro", "types": ["route"]}, {"long_name": "Boa Vista", "short_name": "Boa Vista", "types": ["administrative_area_level_2", "political"]}, {"long_name": "Roraima", "short_name": "RR", "types": ["administrative_area_level_1", "political"]}, {"long_name": "Brazil", "short_name": "BR", "types": ["country", "political"]}], "formatted_address": "R. Don\u00e1 Rute Pinheiro, Boa Vista - RR, Brazil", "geometry": {"bounds": {"northeast": {"lat": 2.8200065, "lng": -60.71381109999999}, "southwest": {"lat": 2.8185095, "lng": -60.72869859999999}}, "location": {"lat": 2.8195509, "lng": -60.7214055}, "location_type": "GEOMETRIC_CENTER", "viewport": {"northeast": {"lat": 2.820606980291501, "lng": -60.71381109999999}, "southwest": {"lat": 2.817909019708498, "lng": -60.72869859999999}}}, "partial_match": true, "place_id": "ChIJBYzyFacFk40Rwt8sRFCFWgM", "types": ["route"]}], [{"address_components": [{"long_name": "Rua dos Beneditinos", "short_name": "R. dos Beneditinos", "types": ["route"]}, {"long_name": "Aparecida", "short_name": "Aparecida", "types": ["political", "sublocality", "sublocality_level_1"]}, {"long_name": "Boa Vista", "short_name": "Boa Vista", "types": ["administrative_area_level_2", "political"]}, {"long_name": "Roraima", "short_name": "RR", "types": ["administrative_area_level_1", "political"]}, {"long_name": "Brazil", "short_name": "BR", "types": ["country", "political"]}, {"long_name": "69306-380", "short_name": "69306-380", "types": ["postal_code"]}], "formatted_address": "R. dos Beneditinos - Aparecida, Boa Vista - RR, 69306-380, Brazil", "geometry": {"bounds": {"northeast": {"lat": 2.8406434, "lng": -60.6609906}, "southwest": {"lat": 2.8341033, "lng": -60.6642573}}, "location": {"lat": 2.8373338, "lng": -60.6629277}, "location_type": "GEOMETRIC_CENTER", "viewport": {"northeast": {"lat": 2.8406434, "lng": -60.6609906}, "southwest": {"lat": 2.8341033, "lng": -60.6642573}}}, "partial_match": true, "place_id": "ChIJLS5BuhwGk40RkGEiKJe37_Q", "types": ["route"]}, {"address_components": [{"long_name": "Aparecida", "short_name": "Aparecida", "types": ["political", "sublocality", "sublocality_level_1"]}, {"long_name": "Boa Vista", "short_name": "Boa Vista", "types": ["administrative_area_level_2", "political"]}, {"long_name": "Roraima", "short_name": "RR", "types": ["administrative_area_level_1", "political"]}, {"long_name": "Brazil", "short_name": "BR", "types": ["country", "political"]}], "formatted_address": "Aparecida, Boa Vista - RR, Brazil", "geometry": {"bounds": {"northeast": {"lat": 2.8462273, "lng": -60.6556781}, "southwest": {"lat": 2.8296703, "lng": -60.66965879999999}}, "location": {"lat": 2.8415562, "lng": -60.66504380000001}, "location_type": "APPROXIMATE", "viewport": {"northeast": {"lat": 2.8462273, "lng": -60.6556781}, "southwest": {"lat": 2.8296703, "lng": -60.66965879999999}}}, "partial_match": true, "place_id": "ChIJIwZT3BwGk40RXWw1tCqi6Co", "types": ["political", "sublocality", "sublocality_level_1"]}], [{"address_components": [{"long_name": "State of Roraima", "short_name": "RR", "types": ["administrative_area_level_1", "political"]}, {"long_name": "Brazil", "short_name": "BR", "types": ["country", "political"]}], "formatted_address": "State of Roraima, Brazil", "geometry": {"bounds": {"northeast": {"lat": 5.2718389, "lng": -58.88687820000001}, "southwest": {"lat": -1.5806358, "lng": -64.8252444}}, "location": {"lat": 2.7375971, "lng": -62.0750998}, "location_type": "APPROXIMATE", "viewport": {"northeast": {"lat": 5.2718389, "lng": -58.88687820000001}, "southwest": {"lat": -1.5806358, "lng": -64.8252444}}}, "partial_match": true, "place_id": "ChIJW_TM33EGk40RFHqcnvIAX2k", "types": ["administrative_area_level_1", "political"]}], [{"address_components": [{"long_name": "256", "short_name": "256", "types": ["street_number"]}, {"long_name": "Rua Reinaldo Neves", "short_name": "R. Reinaldo Neves", "types": ["route"]}, {"long_name": "Jardim Floresta", "short_name": "Jardim Floresta", "types": ["political", "sublocality", "sublocality_level_1"]}, {"long_name": "Boa Vista", "short_name": "Boa Vista", "types": ["administrative_area_level_2", "political"]}, {"long_name": "Roraima", "short_name": "RR", "types": ["administrative_area_level_1", "political"]}, {"long_name": "Brazil", "short_name": "BR", "types": ["country", "political"]}, {"long_name": "69312-045", "short_name": "69312-045", "types": ["postal_code"]}], "formatted_address": "R. Reinaldo Neves, 256 - Jardim Floresta, Boa Vista - RR, 69312-045, Brazil", "geometry": {"location": {"lat": 2.8280562, "lng": -60.7002222}, "location_type": "RANGE_INTERPOLATED", "viewport": {"northeast": {"lat": 2.829405180291502, "lng": -60.6988732197085}, "southwest": {"lat": 2.826707219708498, "lng": -60.7015711802915}}}, "place_id": "EktSLiBSZWluYWxkbyBOZXZlcywgMjU2IC0gSmFyZGltIEZsb3Jlc3RhLCBCb2EgVmlzdGEgLSBSUiwgNjkzMTItMDQ1LCBCcmFzaWwiGxIZChQKEgkByr29lAWTjRF-MchLNk6aXxCAAg", "types": ["street_address"]}], [{"address_components": [{"long_name": "Rua Dacio Pinto de Oliveira", "short_name": "R. Dacio Pinto de Oliveira", "types": ["route"]}, {"long_name": "Doutor Silvio Leite", "short_name": "Dr. Silvio Leite", "types": ["political", "sublocality", "sublocality_level_1"]}, {"long_name": "Boa Vista", "short_name": "Boa Vista", "types": ["administrative_area_level_2", "political"]}, {"long_name": "Roraima", "short_name": "RR", "types": ["administrative_area_level_1", "political"]}, {"long_name": "Brazil", "short_name": "BR", "types": ["country", "political"]}, {"long_name": "69318-125", "short_name": "69318-125", "types": ["postal_code"]}], "formatted_address": "R. Dacio Pinto de Oliveira - Dr. Silvio Leite, Boa Vista - RR, 69318-125, Brazil", "geometry": {"bounds": {"northeast": {"lat": 2.8219156, "lng": -60.735235}, "southwest": {"lat": 2.8169155, "lng": -60.73668759999999}}, "location": {"lat": 2.8198963, "lng": -60.7358922}, "location_type": "GEOMETRIC_CENTER", "viewport": {"northeast": {"lat": 2.8219156, "lng": -60.73461231970848}, "southwest": {"lat": 2.8169155, "lng": -60.7373102802915}}}, "partial_match": true, "place_id": "ChIJK7F1nhEFk40R0DrFCqKLRpY", "types": ["route"]}], [{"address_components": [{"long_name": "901", "short_name": "901", "types": ["street_number"]}, {"long_name": "Rua Estrela D'\u00e1lva", "short_name": "R. Estrela D'\u00e1lva", "types": ["route"]}, {"long_name": "Raiar do Sol", "short_name": "Raiar do Sol", "types": ["political", "sublocality", "sublocality_level_1"]}, {"long_name": "Boa Vista", "short_name": "Boa Vista", "types": ["administrative_area_level_2", "political"]}, {"long_name": "Roraima", "short_name": "RR", "types": ["administrative_area_level_1", "political"]}, {"long_name": "Brazil", "short_name": "BR", "types": ["country", "political"]}, {"long_name": "69316-002", "short_name": "69316-002", "types": ["postal_code"]}], "formatted_address": "R. Estrela D'\u00e1lva, 901 - Raiar do Sol, Boa Vista - RR, 69316-002, Brazil", "geometry": {"location": {"lat": 2.7778703, "lng": -60.720524}, "location_type": "RANGE_INTERPOLATED", "viewport": {"northeast": {"lat": 2.779219280291502, "lng": -60.71917501970849}, "southwest": {"lat": 2.776521319708498, "lng": -60.72187298029151}}}, "place_id": "EklSLiBFc3RyZWxhIEQnw6FsdmEsIDkwMSAtIFJhaWFyIGRvIFNvbCwgQm9hIFZpc3RhIC0gUlIsIDY5MzE2LTAwMiwgQnJhc2lsIhsSGQoUChIJa3F03oAEk40RywzgcFhc8C4QhQc", "types": ["street_address"]}], [{"address_components": [{"long_name": "572", "short_name": "572", "types": ["street_number"]}, {"long_name": "Rua Estrela do Sul", "short_name": "R. Estrela do Sul", "types": ["route"]}, {"long_name": "Distrito Industrial", "short_name": "Distrito Industrial", "types": ["political", "sublocality", "sublocality_level_1"]}, {"long_name": "Boa Vista", "short_name": "Boa Vista", "types": ["administrative_area_level_2", "political"]}, {"long_name": "Roraima", "short_name": "RR", "types": ["administrative_area_level_1", "political"]}, {"long_name": "Brazil", "short_name": "BR", "types": ["country", "political"]}, {"long_name": "69316-012", "short_name": "69316-012", "types": ["postal_code"]}], "formatted_address": "R. Estrela do Sul, 572 - Distrito Industrial, Boa Vista - RR, 69316-012, Brazil", "geometry": {"location": {"lat": 2.774286, "lng": -60.720475}, "location_type": "ROOFTOP", "viewport": {"northeast": {"lat": 2.775634980291502, "lng": -60.71912601970849}, "southwest": {"lat": 2.772937019708498, "lng": -60.7218239802915}}}, "place_id": "ChIJ75xiz38Ek40RB5Cvv5XvL-0", "plus_code": {"compound_code": "Q7FH+PR Boa Vista, State of Roraima, Brazil", "global_code": "67JXQ7FH+PR"}, "types": ["street_address"]}], [{"address_components": [{"long_name": "1567", "short_name": "1567", "types": ["street_number"]}, {"long_name": "Rua Euclides Gomes da Silva", "short_name": "Rua Euclides Gomes da Silva", "types": ["route"]}, {"long_name": "Jardim Equatorial", "short_name": "Jardim Equatorial", "types": ["political", "sublocality", "sublocality_level_1"]}, {"long_name": "Boa Vista", "short_name": "Boa Vista", "types": ["administrative_area_level_2", "political"]}, {"long_name": "Roraima", "short_name": "RR", "types": ["administrative_area_level_1", "political"]}, {"long_name": "Brazil", "short_name": "BR", "types": ["country", "political"]}, {"long_name": "69317-234", "short_name": "69317-234", "types": ["postal_code"]}], "formatted_address": "Rua Euclides Gomes da Silva, 1567 - Jardim Equatorial, Boa Vista - RR, 69317-234, Brazil", "geometry": {"location": {"lat": 2.82588, "lng": -60.75275}, "location_type": "ROOFTOP", "viewport": {"northeast": {"lat": 2.827228980291502, "lng": -60.75140101970849}, "southwest": {"lat": 2.824531019708498, "lng": -60.7540989802915}}}, "place_id": "ChIJ43aghDgFk40RaCN7tEkGdx8", "plus_code": {"compound_code": "R6GW+9W Alvorada, Boa Vista - State of Roraima, Brazil", "global_code": "67JXR6GW+9W"}, "types": ["street_address"]}], [{"address_components": [{"long_name": "642", "short_name": "642", "types": ["street_number"]}, {"long_name": "Rua General Penha Brasil", "short_name": "R. Gen. Penha Brasil", "types": ["route"]}, {"long_name": "S\u00e3o Francisco", "short_name": "S\u00e3o Francisco", "types": ["political", "sublocality", "sublocality_level_1"]}, {"long_name": "Boa Vista", "short_name": "Boa Vista", "types": ["administrative_area_level_2", "political"]}, {"long_name": "Roraima", "short_name": "RR", "types": ["administrative_area_level_1", "political"]}, {"long_name": "Brazil", "short_name": "BR", "types": ["country", "political"]}, {"long_name": "69305-130", "short_name": "69305-130", "types": ["postal_code"]}], "formatted_address": "R. Gen. Penha Brasil, 642 - S\u00e3o Francisco, Boa Vista - RR, 69305-130, Brazil", "geometry": {"location": {"lat": 2.828446, "lng": -60.67627700000001}, "location_type": "ROOFTOP", "viewport": {"northeast": {"lat": 2.829794980291502, "lng": -60.6749280197085}, "southwest": {"lat": 2.827097019708498, "lng": -60.67762598029151}}}, "place_id": "ChIJ7XBl9eEFk40RMlOYPHtTTsA", "plus_code": {"compound_code": "R8HF+9F Boa Vista, State of Roraima, Brazil", "global_code": "67JXR8HF+9F"}, "types": ["street_address"]}], [{"address_components": [{"long_name": "642", "short_name": "642", "types": ["street_number"]}, {"long_name": "Rua General Penha Brasil", "short_name": "R. Gen. Penha Brasil", "types": ["route"]}, {"long_name": "S\u00e3o Francisco", "short_name": "S\u00e3o Francisco", "types": ["political", "sublocality", "sublocality_level_1"]}, {"long_name": "Boa Vista", "short_name": "Boa Vista", "types": ["administrative_area_level_2", "political"]}, {"long_name": "Roraima", "short_name": "RR", "types": ["administrative_area_level_1", "political"]}, {"long_name": "Brazil", "short_name": "BR", "types": ["country", "political"]}, {"long_name": "69305-130", "short_name": "69305-130", "types": ["postal_code"]}], "formatted_address": "R. Gen. Penha Brasil, 642 - S\u00e3o Francisco, Boa Vista - RR, 69305-130, Brazil", "geometry": {"location": {"lat": 2.828446, "lng": -60.67627700000001}, "location_type": "ROOFTOP", "viewport": {"northeast": {"lat": 2.829794980291502, "lng": -60.6749280197085}, "southwest": {"lat": 2.827097019708498, "lng": -60.67762598029151}}}, "place_id": "ChIJ7XBl9eEFk40RMlOYPHtTTsA", "plus_code": {"compound_code": "R8HF+9F Boa Vista, State of Roraima, Brazil", "global_code": "67JXR8HF+9F"}, "types": ["street_address"]}], [{"address_components": [{"long_name": "1", "short_name": "1", "types": ["street_number"]}, {"long_name": "Rua Gilvan Tav\u00e1res", "short_name": "R. Gilvan Tav\u00e1res", "types": ["route"]}, {"long_name": "S\u00e3o Luiz", "short_name": "S\u00e3o Luiz", "types": ["administrative_area_level_2", "political"]}, {"long_name": "Roraima", "short_name": "RR", "types": ["administrative_area_level_1", "political"]}, {"long_name": "Brazil", "short_name": "BR", "types": ["country", "political"]}, {"long_name": "69370-000", "short_name": "69370-000", "types": ["postal_code"]}], "formatted_address": "R. Gilvan Tav\u00e1res, 1, S\u00e3o Luiz - RR, 69370-000, Brazil", "geometry": {"location": {"lat": 1.0165645, "lng": -60.04016}, "location_type": "RANGE_INTERPOLATED", "viewport": {"northeast": {"lat": 1.017913480291502, "lng": -60.0388110197085}, "southwest": {"lat": 1.015215519708498, "lng": -60.04150898029151}}}, "partial_match": true, "place_id": "EjhSLiBHaWx2YW4gVGF2w6FyZXMsIDEsIFPDo28gTHVpeiAtIFJSLCA2OTM3MC0wMDAsIEJyYXNpbCIaEhgKFAoSCbW71H2d94uNEWfFI2q_qNX4EAE", "types": ["street_address"]}], [{"address_components": [{"long_name": "Rua Hc-15", "short_name": "R. Hc-15", "types": ["route"]}, {"long_name": "Senador H\u00e9lio Campos", "short_name": "Sen. H\u00e9lio Campos", "types": ["political", "sublocality", "sublocality_level_1"]}, {"long_name": "Boa Vista", "short_name": "Boa Vista", "types": ["administrative_area_level_2", "political"]}, {"long_name": "Roraima", "short_name": "RR", "types": ["administrative_area_level_1", "political"]}, {"long_name": "Brazil", "short_name": "BR", "types": ["country", "political"]}], "formatted_address": "R. Hc-15 - Sen. H\u00e9lio Campos, Boa Vista - RR, Brazil", "geometry": {"bounds": {"northeast": {"lat": 2.8101864, "lng": -60.7648342}, "southwest": {"lat": 2.80978, "lng": -60.7688297}}, "location": {"lat": 2.8100381, "lng": -60.76569060000001}, "location_type": "GEOMETRIC_CENTER", "viewport": {"northeast": {"lat": 2.811332180291502, "lng": -60.7648342}, "southwest": {"lat": 2.808634219708498, "lng": -60.7688297}}}, "place_id": "ChIJ7Wg0vyoFk40RtjF3oSId1BM", "types": ["route"]}], [{"address_components": [{"long_name": "Rua Hc-15", "short_name": "R. Hc-15", "types": ["route"]}, {"long_name": "Senador H\u00e9lio Campos", "short_name": "Sen. H\u00e9lio Campos", "types": ["political", "sublocality", "sublocality_level_1"]}, {"long_name": "Boa Vista", "short_name": "Boa Vista", "types": ["administrative_area_level_2", "political"]}, {"long_name": "Roraima", "short_name": "RR", "types": ["administrative_area_level_1", "political"]}, {"long_name": "Brazil", "short_name": "BR", "types": ["country", "political"]}], "formatted_address": "R. Hc-15 - Sen. H\u00e9lio Campos, Boa Vista - RR, Brazil", "geometry": {"bounds": {"northeast": {"lat": 2.8101864, "lng": -60.7648342}, "southwest": {"lat": 2.80978, "lng": -60.7688297}}, "location": {"lat": 2.8100381, "lng": -60.76569060000001}, "location_type": "GEOMETRIC_CENTER", "viewport": {"northeast": {"lat": 2.811332180291502, "lng": -60.7648342}, "southwest": {"lat": 2.808634219708498, "lng": -60.7688297}}}, "place_id": "ChIJ7Wg0vyoFk40RtjF3oSId1BM", "types": ["route"]}], [{"address_components": [{"long_name": "145", "short_name": "145", "types": ["street_number"]}, {"long_name": "Rua Inoc\u00eancio Garc\u00eda", "short_name": "R. Inoc\u00eancio Garc\u00eda", "types": ["route"]}, {"long_name": "Mecejana", "short_name": "Mecejana", "types": ["political", "sublocality", "sublocality_level_1"]}, {"long_name": "Boa Vista", "short_name": "Boa Vista", "types": ["administrative_area_level_2", "political"]}, {"long_name": "Roraima", "short_name": "RR", "types": ["administrative_area_level_1", "political"]}, {"long_name": "Brazil", "short_name": "BR", "types": ["country", "political"]}, {"long_name": "69304-020", "short_name": "69304-020", "types": ["postal_code"]}], "formatted_address": "R. Inoc\u00eancio Garc\u00eda, 145 - Mecejana, Boa Vista - RR, 69304-020, Brazil", "geometry": {"location": {"lat": 2.82625, "lng": -60.691975}, "location_type": "ROOFTOP", "viewport": {"northeast": {"lat": 2.827598980291502, "lng": -60.6906260197085}, "southwest": {"lat": 2.824901019708498, "lng": -60.69332398029151}}}, "place_id": "ChIJYe1MhOkFk40RF2wmpMCOWtc", "plus_code": {"compound_code": "R8G5+G6 Boa Vista, State of Roraima, Brazil", "global_code": "67JXR8G5+G6"}, "types": ["street_address"]}], [{"address_components": [{"long_name": "145", "short_name": "145", "types": ["street_number"]}, {"long_name": "Rua Inoc\u00eancio Garc\u00eda", "short_name": "R. Inoc\u00eancio Garc\u00eda", "types": ["route"]}, {"long_name": "Mecejana", "short_name": "Mecejana", "types": ["political", "sublocality", "sublocality_level_1"]}, {"long_name": "Boa Vista", "short_name": "Boa Vista", "types": ["administrative_area_level_2", "political"]}, {"long_name": "Roraima", "short_name": "RR", "types": ["administrative_area_level_1", "political"]}, {"long_name": "Brazil", "short_name": "BR", "types": ["country", "political"]}, {"long_name": "69304-020", "short_name": "69304-020", "types": ["postal_code"]}], "formatted_address": "R. Inoc\u00eancio Garc\u00eda, 145 - Mecejana, Boa Vista - RR, 69304-020, Brazil", "geometry": {"location": {"lat": 2.82625, "lng": -60.691975}, "location_type": "ROOFTOP", "viewport": {"northeast": {"lat": 2.827598980291502, "lng": -60.6906260197085}, "southwest": {"lat": 2.824901019708498, "lng": -60.69332398029151}}}, "place_id": "ChIJYe1MhOkFk40RF2wmpMCOWtc", "plus_code": {"compound_code": "R8G5+G6 Boa Vista, State of Roraima, Brazil", "global_code": "67JXR8G5+G6"}, "types": ["street_address"]}], [{"address_components": [{"long_name": "State of Roraima", "short_name": "RR", "types": ["administrative_area_level_1", "political"]}, {"long_name": "Brazil", "short_name": "BR", "types": ["country", "political"]}], "formatted_address": "State of Roraima, Brazil", "geometry": {"bounds": {"northeast": {"lat": 5.2718389, "lng": -58.88687820000001}, "southwest": {"lat": -1.5806358, "lng": -64.8252444}}, "location": {"lat": 2.7375971, "lng": -62.0750998}, "location_type": "APPROXIMATE", "viewport": {"northeast": {"lat": 5.2718389, "lng": -58.88687820000001}, "southwest": {"lat": -1.5806358, "lng": -64.8252444}}}, "partial_match": true, "place_id": "ChIJW_TM33EGk40RFHqcnvIAX2k", "types": ["administrative_area_level_1", "political"]}], [{"address_components": [{"long_name": "460", "short_name": "460", "types": ["street_number"]}, {"long_name": "Rua Jandira Lago", "short_name": "R. Jandira Lago", "types": ["route"]}, {"long_name": "Liberdade", "short_name": "Liberdade", "types": ["political", "sublocality", "sublocality_level_1"]}, {"long_name": "Boa Vista", "short_name": "Boa Vista", "types": ["administrative_area_level_2", "political"]}, {"long_name": "Roraima", "short_name": "RR", "types": ["administrative_area_level_1", "political"]}, {"long_name": "Brazil", "short_name": "BR", "types": ["country", "political"]}, {"long_name": "69309-004", "short_name": "69309-004", "types": ["postal_code"]}], "formatted_address": "R. Jandira Lago, 460 - Liberdade, Boa Vista - RR, 69309-004, Brazil", "geometry": {"location": {"lat": 2.8250798, "lng": -60.70667929999999}, "location_type": "RANGE_INTERPOLATED", "viewport": {"northeast": {"lat": 2.826428780291502, "lng": -60.70533031970849}, "southwest": {"lat": 2.823730819708498, "lng": -60.7080282802915}}}, "place_id": "EkNSLiBKYW5kaXJhIExhZ28sIDQ2MCAtIExpYmVyZGFkZSwgQm9hIFZpc3RhIC0gUlIsIDY5MzA5LTAwNCwgQnJhc2lsIhsSGQoUChIJh09cJpYFk40RtlE61RoU8I4QzAM", "types": ["street_address"]}], [{"address_components": [{"long_name": "Jandira", "short_name": "Jandira", "types": ["locality", "political"]}, {"long_name": "Jandira", "short_name": "Jandira", "types": ["administrative_area_level_2", "political"]}, {"long_name": "State of S\u00e3o Paulo", "short_name": "SP", "types": ["administrative_area_level_1", "political"]}, {"long_name": "Brazil", "short_name": "BR", "types": ["country", "political"]}], "formatted_address": "Jandira, State of S\u00e3o Paulo, Brazil", "geometry": {"bounds": {"northeast": {"lat": -23.5140946, "lng": -46.8575233}, "southwest": {"lat": -23.5698977, "lng": -46.9293067}}, "location": {"lat": -23.5280281, "lng": -46.9027629}, "location_type": "APPROXIMATE", "viewport": {"northeast": {"lat": -23.5140946, "lng": -46.8575233}, "southwest": {"lat": -23.5698977, "lng": -46.9293067}}}, "partial_match": true, "place_id": "ChIJTb9z_jcBz5QRTfHWwUk2114", "types": ["locality", "political"]}, {"address_components": [{"long_name": "Lagos", "short_name": "Lagos", "types": ["locality", "political"]}, {"long_name": "Lagos", "short_name": "LA", "types": ["administrative_area_level_1", "political"]}, {"long_name": "Nigeria", "short_name": "NG", "types": ["country", "political"]}], "formatted_address": "Lagos, Nigeria", "geometry": {"bounds": {"northeast": {"lat": 6.7027591, "lng": 3.4696459}, "southwest": {"lat": 6.393351099999999, "lng": 3.0982732}}, "location": {"lat": 6.5243793, "lng": 3.3792057}, "location_type": "APPROXIMATE", "viewport": {"northeast": {"lat": 6.7027591, "lng": 3.4696459}, "southwest": {"lat": 6.393351099999999, "lng": 3.0982732}}}, "partial_match": true, "place_id": "ChIJwYCC5iqLOxARy9nDZ6OHntw", "types": ["locality", "political"]}, {"address_components": [{"long_name": "State of Roraima", "short_name": "RR", "types": ["administrative_area_level_1", "political"]}, {"long_name": "Brazil", "short_name": "BR", "types": ["country", "political"]}], "formatted_address": "State of Roraima, Brazil", "geometry": {"bounds": {"northeast": {"lat": 5.2718389, "lng": -58.88687820000001}, "southwest": {"lat": -1.5806358, "lng": -64.8252444}}, "location": {"lat": 2.7375971, "lng": -62.0750998}, "location_type": "APPROXIMATE", "viewport": {"northeast": {"lat": 5.2718389, "lng": -58.88687820000001}, "southwest": {"lat": -1.5806358, "lng": -64.8252444}}}, "partial_match": true, "place_id": "ChIJW_TM33EGk40RFHqcnvIAX2k", "types": ["administrative_area_level_1", "political"]}], [{"address_components": [{"long_name": "460", "short_name": "460", "types": ["street_number"]}, {"long_name": "Rua Jandira Lago", "short_name": "R. Jandira Lago", "types": ["route"]}, {"long_name": "Liberdade", "short_name": "Liberdade", "types": ["political", "sublocality", "sublocality_level_1"]}, {"long_name": "Boa Vista", "short_name": "Boa Vista", "types": ["administrative_area_level_2", "political"]}, {"long_name": "Roraima", "short_name": "RR", "types": ["administrative_area_level_1", "political"]}, {"long_name": "Brazil", "short_name": "BR", "types": ["country", "political"]}, {"long_name": "69309-004", "short_name": "69309-004", "types": ["postal_code"]}], "formatted_address": "R. Jandira Lago, 460 - Liberdade, Boa Vista - RR, 69309-004, Brazil", "geometry": {"location": {"lat": 2.8250798, "lng": -60.70667929999999}, "location_type": "RANGE_INTERPOLATED", "viewport": {"northeast": {"lat": 2.826428780291502, "lng": -60.70533031970849}, "southwest": {"lat": 2.823730819708498, "lng": -60.7080282802915}}}, "place_id": "EkNSLiBKYW5kaXJhIExhZ28sIDQ2MCAtIExpYmVyZGFkZSwgQm9hIFZpc3RhIC0gUlIsIDY5MzA5LTAwNCwgQnJhc2lsIhsSGQoUChIJh09cJpYFk40RtlE61RoU8I4QzAM", "types": ["street_address"]}], [{"address_components": [{"long_name": "1291", "short_name": "1291", "types": ["street_number"]}, {"long_name": "Rua Jerusal\u00e9m", "short_name": "Rua Jerusal\u00e9m", "types": ["route"]}, {"long_name": "Felix Valois De Araujo", "short_name": "Felix Valois De Araujo", "types": ["political", "sublocality", "sublocality_level_1"]}, {"long_name": "Boa Vista", "short_name": "Boa Vista", "types": ["administrative_area_level_2", "political"]}, {"long_name": "Roraima", "short_name": "RR", "types": ["administrative_area_level_1", "political"]}, {"long_name": "Brazil", "short_name": "BR", "types": ["country", "political"]}, {"long_name": "69316-788", "short_name": "69316-788", "types": ["postal_code"]}], "formatted_address": "Rua Jerusal\u00e9m, 1291 - Felix Valois De Araujo, Boa Vista - RR, 69316-788, Brazil", "geometry": {"location": {"lat": 2.810583, "lng": -60.735333}, "location_type": "ROOFTOP", "viewport": {"northeast": {"lat": 2.811931980291502, "lng": -60.73398401970849}, "southwest": {"lat": 2.809234019708498, "lng": -60.7366819802915}}}, "place_id": "ChIJT6ef_BwFk40RfmVoU1-RPec", "plus_code": {"compound_code": "R767+6V Boa Vista, State of Roraima, Brazil", "global_code": "67JXR767+6V"}, "types": ["street_address"]}], [{"address_components": [{"long_name": "1338", "short_name": "1338", "types": ["street_number"]}, {"long_name": "Rua Jorge Dias Carneiro", "short_name": "R. Jorge Dias Carneiro", "types": ["route"]}, {"long_name": "Jardim Equatorial", "short_name": "Jardim Equatorial", "types": ["political", "sublocality", "sublocality_level_1"]}, {"long_name": "Boa Vista", "short_name": "Boa Vista", "types": ["administrative_area_level_2", "political"]}, {"long_name": "Roraima", "short_name": "RR", "types": ["administrative_area_level_1", "political"]}, {"long_name": "Brazil", "short_name": "BR", "types": ["country", "political"]}, {"long_name": "69317-232", "short_name": "69317-232", "types": ["postal_code"]}], "formatted_address": "R. Jorge Dias Carneiro, 1338 - Jardim Equatorial, Boa Vista - RR, 69317-232, Brazil", "geometry": {"location": {"lat": 2.823795, "lng": -60.75193499999999}, "location_type": "ROOFTOP", "viewport": {"northeast": {"lat": 2.825143980291502, "lng": -60.75058601970849}, "southwest": {"lat": 2.822446019708499, "lng": -60.7532839802915}}}, "place_id": "ChIJ02zVITkFk40RYJDB8KZKcXE", "plus_code": {"compound_code": "R6FX+G6 Boa Vista, State of Roraima, Brazil", "global_code": "67JXR6FX+G6"}, "types": ["street_address"]}], [{"address_components": [{"long_name": "1", "short_name": "1", "types": ["street_number"]}, {"long_name": "Rua Jos\u00e9 Bonif\u00e1cio", "short_name": "R. Jos\u00e9 Bonif\u00e1cio", "types": ["route"]}, {"long_name": "Aparecida", "short_name": "Aparecida", "types": ["political", "sublocality", "sublocality_level_1"]},